property_name,address,latitude,longitude,price_range,bedroom,bathroom,room_area,amenities
The Residences at NewCity,"1457 N Halsted St, Chicago IL 60642",41.90801,-87.64773,"$2,126 - $4,215",Studio - 2 bd,1 - 2 ba,590 - 1315 sq ft,"Pool, Fitness Center, Elevator, Clubhouse, Controlled Access, Recycling, Business Center, Grill, In Unit Washer & Dryer, Air Conditioning, Dishwasher, High Speed Internet Access, Hardwood Floors, Walk-In Closets, Microwave, Refrigerator"
Elevate,"930 W Altgeld St, Chicago IL 60614",41.9276,-87.65243,"$1,910 - $14,435",Studio - 3 bd,1 - 2.5 ba,464 - 2616 sq ft,"Pool, Fitness Center, Elevator, Clubhouse, In Unit Washer & Dryer, Air Conditioning, Wi-Fi, Fireplace"
1407 On Michigan,"1407 S Michigan Ave, Chicago IL 60605",41.86377,-87.6236,"$1,750 - $5,650",Studio - 3 bd,1 - 2 ba,446 - 1687 sq ft,"Pool, Fitness Center, Elevator, Doorman, Clubhouse, Roof Terrace, Recycling, Business Center, In Unit Washer & Dryer, Air Conditioning, Dishwasher, Washer/Dryer Hookup, High Speed Internet Access, Hardwood Floors, Walk-In Closets, Island Kitchen"
The Pavilion,"5441 NE NEast River Rd, Chicago IL 60656",41.97831,-87.84335,"$1,115 - $2,420",Studio - 4 bd,1 - 3 ba,502 - 2317 sq ft,"Pool, Fitness Center, Controlled Access, Business Center, Walk-In Closets, Refrigerator, Window Coverings, Heating"
Gild,"1206-1212 N State Pky, Chicago IL 60610",41.90423,-87.62905,"$2,260 - $6,322",Studio - 2 bd,1 - 2 ba,463 - 1272 sq ft,"Fitness Center, Elevator, Concierge, Clubhouse, In Unit Washer & Dryer, Air Conditioning, Dishwasher, High Speed Internet Access"
Residences at 8 East Huron,"8 E Huron St, Chicago IL 60611",41.89508,-87.62791,"$2,525 - $6,895",1 - 3 bd,1.0 - 3.5 ba,540 - 2680 sq ft,"Granite Countertops, Microwave, In Unit Washer & Dryer, Air Conditioning, High Speed Internet Access, Clubhouse, Fitness Center, Pool, Grill, Community-Wide WiFi, Parking Available, Utilities Included, Hardwood Floors, Concierge, Island Kitchen, Controlled Access, Recycling, Walk-In Closets, Pet Friendly, Dishwasher"
Optima Signature,"220 E Illinois St, Chicago IL 60611",41.8914,-87.62163,"$2,485 - $9,614",Studio - 3 bd,1 - 2 ba,571 - 1642 sq ft,"Pool, Fitness Center, Elevator, Concierge, Playground, Clubhouse, Roof Terrace, Controlled Access, In Unit Washer & Dryer, Dishwasher, High Speed Internet Access, Hardwood Floors"
Union West,"939 W Washington Blvd, Chicago IL 60607",41.88281,-87.65139,"$2,035 - $6,000",Studio - 2 bd,1 - 2 ba,482 - 1122 sq ft,"Pool, Fitness Center, Business Center, Grill"
The Bernardin,"747 N Wabash Ave, Chicago IL 60611",41.8965,-87.62655,"$2,895 - $5,067",Studio - 2 bd,1 - 2.5 ba,546 - 2031 sq ft,"Pool, Fitness Center, Elevator, Doorman, Concierge, Roof Terrace, Controlled Access, Recycling, In Unit Washer & Dryer, Air Conditioning, Dishwasher, High Speed Internet Access, Hardwood Floors, Walk-In Closets, Island Kitchen, Microwave"
Emme Chicago,"165 N Desplaines St, Chicago IL 60661",41.88507,-87.64346,"$2,166 - $3,907",Studio - 2 bd,1 - 2 ba,460 - 965 sq ft,"Pool, Fitness Center, Elevator, Pet Care, In Unit Washer & Dryer, Air Conditioning, Dishwasher, Office"
Milieu,"205 S Peoria, Chicago IL 60607",41.87898,-87.64927,"$2,060 - $4,230",Studio - 2 bd,1 - 2 ba,561 - 1274 sq ft,"Pool, Fitness Center, Clubhouse, Grill, In Unit Washer & Dryer, Air Conditioning, Refrigerator, Stainless Steel Appliances"
One Chicago,"14 W Superior St, Chicago IL 60654",41.89625,-87.62875,"$2,284 - $11,520",Studio - 3 bd,1.0 - 2.5 ba,525 - 2211 sq ft,"Parking Available, Clubhouse, Fitness Center, Pet Friendly, Concierge, Elevator, In Unit Washer & Dryer, Air Conditioning"
The Parker Fulton Market,"730 W Couch Pl, Chicago IL 60661",41.88545,-87.64716,"$2,113 - $7,492",Studio - 3 bd,1 - 2.5 ba,522 - 1662 sq ft,"Pool, Fitness Center, Concierge, Roof Terrace, Controlled Access, Recycling, Business Center, Grill, In Unit Washer & Dryer, Air Conditioning, Dishwasher, High Speed Internet Access, Hardwood Floors, Walk-In Closets, Island Kitchen, Granite Countertops"
Marlowe,"169 W Huron St, Chicago IL 60654",41.89437,-87.63383,"$2,049 - $5,676",Studio - 2 bd,1 - 2 ba,431 - 1580 sq ft,"Pool, Fitness Center, Concierge, Clubhouse, Roof Terrace, Controlled Access, Business Center, Grill, In Unit Washer & Dryer, Air Conditioning, Dishwasher, High Speed Internet Access, Walk-In Closets, Granite Countertops, Microwave, Disposal"
Avra West Loop,"1125 W Van Buren St, Chicago IL 60607",41.87638,-87.65534,"$2,025 - $3,710",Studio - 2 bd,1 - 2 ba,500 - 980 sq ft,"Fitness Center, Elevator, Doorman, Concierge, Controlled Access, Recycling, Business Center, Grill, In Unit Washer & Dryer, Air Conditioning, Dishwasher, High Speed Internet Access, Hardwood Floors, Walk-In Closets, Island Kitchen, Microwave"
North Water Apartments,"340 E North Water St, Chicago IL 60611",41.88969,-87.6188,"$2,283 - $8,678",Studio - 3 bd,1 - 3 ba,550 - 2163 sq ft,"Pool, Fitness Center, Roof Terrace, Controlled Access, Recycling, Business Center, Grill, Conference Room, In Unit Washer & Dryer, Air Conditioning, Dishwasher, Hardwood Floors, Island Kitchen, Microwave, Refrigerator, Wi-Fi"
Parq Fulton,"1400 W Randolph St, Chicago IL 60607",41.88454,-87.66264,"$2,130 - $5,725",Studio - 3 bd,1 - 2.5 ba,490 - 1302 sq ft,"Pool, Fitness Center, Furnished Units Available, Elevator, Concierge, Roof Terrace, Controlled Access, Business Center, In Unit Washer & Dryer, Air Conditioning, Dishwasher, Island Kitchen"
The Kent,"2623-2627 N Clark St, Chicago IL 60614",41.93043,-87.6434,"$2,144 - $2,224",1 bd,1 ba,671 - 705 sq ft,"Fitness Center, Laundry Facilities, Elevator, Concierge, Controlled Access, Recycling, Grill, Gated, In Unit Washer & Dryer, Air Conditioning, Dishwasher, High Speed Internet Access, Walk-In Closets, Island Kitchen, Granite Countertops, Microwave"
Chestnut Tower Apartments,"121 W Chestnut St, Chicago IL 60610",41.89738,-87.63236,"$2,096 - $5,807",Studio - 3 bd,1 - 3 ba,540 - 1920 sq ft,"Fitness Center, Elevator, Doorman, Concierge, Clubhouse, Roof Terrace, Controlled Access, Recycling, In Unit Washer & Dryer, Air Conditioning, Dishwasher, High Speed Internet Access, Hardwood Floors, Walk-In Closets, Island Kitchen, Granite Countertops"
The Synagogue,"5029 N Kenmore Ave, Chicago IL 60640",41.97418,-87.65597,"$1,870 - $1,890",1 bd,1 ba,546 - 633 sq ft,"Laundry Facilities, Elevator, Bike Storage, Lounge, In Unit Washer & Dryer, Air Conditioning, Dishwasher, Hardwood Floors"
Aurelien,"833 N Clark St, Chicago IL 60610",41.89724,-87.63083,"$2,090 - $16,463",Studio - 3 bd,1.0 - 3.0 ba,6 - 3339 sq ft,"Business Center, Recycling, Utilities Included, Fitness Center, Pool, Roof Terrace, Doorman, Walk-In Closets, Refrigerator, Tub/Shower, Microwave, Dishwasher, Concierge, Disposal, Elevator, In Unit Washer & Dryer, Air Conditioning"
The Apartments at Lincoln Common,"2345 N Lincoln Ave, Chicago IL 60614",41.92438,-87.6467,"$2,145 - $8,020",Studio - 3 bd,1.0 - 2.5 ba,486 - 1905 sq ft,"Microwave, In Unit Washer & Dryer, Laundry Facilities, Air Conditioning, High Speed Internet Access, Clubhouse, Fitness Center, Pool, Playground, Parking Available, Utilities Included, Doorman, Hardwood Floors, Concierge, Island Kitchen, Walk-In Closets, Pet Friendly, Elevator, Dishwasher"
Coeval,"51 E 14th St, Chicago IL 60605",41.86388,-87.62517,"$1,765 - $5,045",Studio - 2 bd,1.0 - 2.0 ba,467 - 1333 sq ft,"Bike Storage, High Speed Internet Access, Stainless Steel Appliances, Parking Available, Fitness Center, Grill, Pet Friendly, Concierge, Range, In Unit Washer & Dryer, Air Conditioning"
369 Grand by Onni,"369 W Grand Ave, Chicago IL 60654",41.89134,-87.6378,"$2,095 - $79,727",Studio - 4 bd,1 - 4.5 ba,542 - 6439 sq ft,"Pool, Fitness Center, Elevator, Concierge, In Unit Washer & Dryer, Air Conditioning, Dishwasher, Walk-In Closets, Island Kitchen, Granite Countertops, Microwave, Refrigerator"
Evo Union Park,"1454 W Randolph St, Chicago IL 60607",41.88457,-87.66368,"$1,925 - $4,199",Studio - 2 bd,1 - 2 ba,473 - 1211 sq ft,"Pool, Fitness Center, Furnished Units Available, Elevator, Roof Terrace, Controlled Access, Business Center, Grill, In Unit Washer & Dryer, Air Conditioning, Dishwasher, Island Kitchen"
The Ardus,"676 N La Salle Dr, Chicago IL 60654",41.89456,-87.63329,"$1,800 - $2,420",Studio - 1 bd,1 ba,363 - 725 sq ft,"Pool, Fitness Center, Elevator, Concierge, Clubhouse, Controlled Access, Recycling, Business Center, In Unit Washer & Dryer, Air Conditioning, Dishwasher, Hardwood Floors"
The Madison at Racine,"1164-1212 W Madison St, Chicago IL 60607",41.88201,-87.65699,"$2,055 - $8,318",Studio - 2 bd,1 - 2 ba,568 - 1319 sq ft,"Pool, Fitness Center, Elevator, Concierge, Clubhouse, Controlled Access, Recycling, Grill, In Unit Washer & Dryer, Air Conditioning, Dishwasher, High Speed Internet Access, Walk-In Closets, Microwave, Refrigerator, Wi-Fi"
Exhibit on Superior,"165 W Superior St, Chicago IL 60654",41.89538,-87.63348,"$1,759 - $9,853",Studio - 3 bd,1 - 3 ba,450 - 1528 sq ft,"Pool, Fitness Center, Elevator, Doorman, Concierge, Clubhouse, Controlled Access, Recycling, In Unit Washer & Dryer, Dishwasher, High Speed Internet Access, Walk-In Closets"
Aberdeen East,"171 N Aberdeen St, Chicago IL 60607",41.88518,-87.65416,"$1,996 - $4,788",Studio - 2 bd,1 - 2 ba,605 - 1330 sq ft,"Fitness Center, Laundry Facilities, Elevator, Clubhouse, Roof Terrace, Controlled Access, Recycling, Grill, In Unit Washer & Dryer, Air Conditioning, Dishwasher, High Speed Internet Access, Walk-In Closets, Granite Countertops, Microwave, Refrigerator"
The Henry,"4346 N Honore St, Chicago IL 60613",41.96049,-87.67524,"$2,044 - $2,139",1 bd,1 ba,611 - 677 sq ft,"Elevator, Controlled Access, Trash Pickup - Door to Door, Bike Storage, In Unit Washer & Dryer, Air Conditioning, Dishwasher, Island Kitchen"
One Superior Place,"1 W Superior St, Chicago IL 60654",41.89552,-87.6289,"$1,907 - $4,098",Studio - 2 bd,1 - 2 ba,600 - 1160 sq ft,"Pool, Fitness Center, Clubhouse, Controlled Access, In Unit Washer & Dryer, Air Conditioning, Dishwasher, High Speed Internet Access, Hardwood Floors, Walk-In Closets, Granite Countertops, Microwave"
OneEleven,"111 W Wacker Dr, Chicago IL 60601",41.88651,-87.63141,"$1,980 - $12,529",Studio - 3 bd,1 - 3.5 ba,525 - 2345 sq ft,"Pool, Fitness Center, Elevator, Doorman, Concierge, Roof Terrace, Controlled Access, Recycling, In Unit Washer & Dryer, Air Conditioning, Dishwasher, High Speed Internet Access, Walk-In Closets, Island Kitchen, Microwave, Refrigerator"
One East Delaware,"1 E Delaware Pl, Chicago IL 60611",41.89889,-87.62799,"$1,825 - $4,813",Studio - 2 bd,1 - 2 ba,540 - 1040 sq ft,"Fitness Center, Business Center, Lounge, Maintenance on site"
The Van Buren,"808 W Van Buren St, Chicago IL 60607",41.87684,-87.64747,"$2,200 - $3,820",Studio - 2 bd,1 - 2 ba,551 - 1090 sq ft,"Pool, Fitness Center, Laundry Facilities, Elevator, Concierge, Roof Terrace, Controlled Access, Recycling, In Unit Washer & Dryer, Air Conditioning, Dishwasher, High Speed Internet Access, Walk-In Closets, Granite Countertops, Microwave, Refrigerator"
Monroe Aberdeen Place,"1050-1060 W Monroe St, Chicago IL 60607",41.88073,-87.65428,"$3,412 - $4,108",1 - 3 bd,1 - 2 ba,765 - 1605 sq ft,"In Unit Washer & Dryer, Dishwasher, Refrigerator, Crown Molding"
Noca Blu,"2340 N California Ave, Chicago IL 60647",41.9239,-87.69769,"$1,740 - $4,990",Studio - 2 bd,1.0 - 2.0 ba,462 - 1321 sq ft,"Clubhouse, Fitness Center, Walk-In Closets, Pet Friendly, Dishwasher, Concierge, Furnished Units Available, In Unit Washer & Dryer, Air Conditioning"
Westerly,"740 N Aberdeen St, Chicago IL 60642",41.89498,-87.65485,"$1,720 - $5,595",Studio - 3 bd,1 - 3 ba,546 - 1513 sq ft,"Pool, Fitness Center, Elevator, Concierge, In Unit Washer & Dryer, Air Conditioning, Dishwasher, High Speed Internet Access"
Reside on Green Street,"504 N Green St, Chicago IL 60642",41.89148,-87.64904,"$1,745 - $13,761",Studio - 3 bd,1 - 3 ba,441 - 1549 sq ft,"Pool, Fitness Center, Maintenance on site, Sundeck"
Cobbler Square Lofts,"1350 N Wells St, Chicago IL 60610",41.90748,-87.63546,"$1,645 - $3,040",Studio - 2 bd,1 - 2 ba,490 - 1640 sq ft,"Pool, Fitness Center, Laundry Facilities, Concierge, Air Conditioning, Dishwasher, High Speed Internet Access, Walk-In Closets"
The Gallery on Wells,"167 W Erie St, Chicago IL 60654",41.89373,-87.63383,"$1,724 - $5,753",Studio - 2 bd,1 - 2 ba,452 - 1474 sq ft,"Pool, Fitness Center, Concierge, Controlled Access, Recycling, Grill, Sauna, Bike Storage, In Unit Washer & Dryer, Air Conditioning, Dishwasher, High Speed Internet Access, Walk-In Closets, Island Kitchen, Microwave, Refrigerator"
Triangle Square,"2155 N Elston Ave, Chicago IL 60614",41.92025,-87.66991,"$1,690 - $6,210",Studio - 3 bd,1.0 - 2.0 ba,462 - 1413 sq ft,"High Speed Internet Access, Parking Available, Fitness Center, Pool, Pet Friendly, Dishwasher, Concierge, Elevator, In Unit Washer & Dryer, Air Conditioning"
Atrio Apartments,"1922 W Odgen Ave, Chicago IL 60612",41.87462,-87.67517,"$1,730 - $3,325",Studio - 3 bd,1 - 2 ba,484 - 1107 sq ft,"Fitness Center, Furnished Units Available, Elevator, Roof Terrace, Controlled Access, Business Center, Community-Wide WiFi, Laundry Service, In Unit Washer & Dryer, Dishwasher, High Speed Internet Access, Hardwood Floors"
Gold Coast City Club Apartments,"860 N Dewitt Pl, Chicago IL 60611",41.89867,-87.62044,"$2,180 - $3,590",Studio - 2 bd,1 - 2 ba,570 - 1575 sq ft,"Fitness Center, Laundry Facilities, Elevator, Concierge, In Unit Washer & Dryer, Air Conditioning, Dishwasher, High Speed Internet Access"
Imprint,"717 S Clark St, Chicago IL 60605",41.87304,-87.6303,"$1,735 - $14,000",Studio - 4 bd,1.0 - 4.5 ba,478 - 3276 sq ft,"Microwave, In Unit Washer & Dryer, Air Conditioning, High Speed Internet Access, Fitness Center, Grill, Parking Available, Utilities Included, Hardwood Floors, Concierge, Island Kitchen, Controlled Access, Recycling, Walk-In Closets, Roof Terrace, Pet Friendly, Business Center, Elevator, Dishwasher"
The Streeter,"345 E Ohio St, Chicago IL 60611",41.89241,-87.61883,"$2,067 - $6,095",Studio - 3 bd,1 - 3 ba,585 - 1813 sq ft,"Pool, Fitness Center, Laundry Facilities, Elevator, Doorman, Concierge, Clubhouse, Controlled Access, In Unit Washer & Dryer, Air Conditioning, Dishwasher, High Speed Internet Access, Walk-In Closets, Island Kitchen, Granite Countertops, Microwave"
Xavier,"625 W Division St, Chicago IL 60610",41.90316,-87.64408,"$1,925 - $3,275",Studio - 2 bd,1 - 2 ba,494 - 1034 sq ft,"Pool, Fitness Center, Elevator, Doorman, In Unit Washer & Dryer, Air Conditioning, Dishwasher, High Speed Internet Access, Hardwood Floors, Walk-In Closets, Granite Countertops, Microwave"
Clark Street Apartments,"2555 N Clark St, Chicago IL 60614",41.92962,-87.64245,"$1,762 - $2,981",Studio - 1 bd,1 ba,500 - 900 sq ft,"Fitness Center, Laundry Facilities, Elevator, Doorman, Controlled Access, Recycling, Business Center, Grill, Air Conditioning, Dishwasher, High Speed Internet Access, Walk-In Closets, Granite Countertops, Refrigerator, Wi-Fi, Tub/Shower"
Gateway West Loop,"11 S Green St, Chicago IL 60607",41.88151,-87.64822,"$1,630 - $5,531",Studio - 2 bd,1 - 2 ba,399 - 1231 sq ft,"Pool, Fitness Center, Concierge, Controlled Access, In Unit Washer & Dryer, Air Conditioning, Dishwasher, High Speed Internet Access, Hardwood Floors, Walk-In Closets, Granite Countertops, Microwave"
The Alfred,"30 E Adams St, Chicago IL 60603",41.8798,-87.62651,"$1,940 - $3,120",Studio - 2 bd,1 ba,523 - 1144 sq ft,"Fitness Center, Elevator, Doorman, Concierge, Roof Terrace, Controlled Access, Recycling, Business Center, In Unit Washer & Dryer, Air Conditioning, Dishwasher, High Speed Internet Access, Hardwood Floors, Microwave, Refrigerator, Wi-Fi"
Aqua at Lakeshore East,"225 N Columbus Dr, Chicago IL 60601",41.88647,-87.61989,"$1,937 - $15,439",Studio - 2 bd,1 - 2 ba,564 - 1080 sq ft,"Pool, Fitness Center, Recycling, Business Center, In Unit Washer & Dryer, Dishwasher, High Speed Internet Access, Granite Countertops"
6031 N Paulina St,"6031-6043 N Paulina St, Chicago IL 60660",41.99188,-87.67141,"$1,400 - $1,850",1 - 2 bd,1 ba,1100 - 1200 sq ft,"High Speed Internet Access, Hardwood Floors, Refrigerator, Ceiling Fans"
Aston,"200 E Illinois St, Chicago IL 60611",41.89122,-87.62222,"$2,153 - $9,453",1 - 3 bd,1 - 3.5 ba,695 - 2804 sq ft,"Pool, Fitness Center, Furnished Units Available, Concierge, In Unit Washer & Dryer, Air Conditioning, High Speed Internet Access, Refrigerator"
State and Grand,"505 N State St, CHICAGO IL 60654",41.89115,-87.62772,"$2,107 - $6,372",1 - 3 bd,1 - 2.5 ba,627 - 2267 sq ft,"Pool, Fitness Center, Elevator, Concierge, Walk-In Closets, Wi-Fi, Vaulted Ceiling, Window Coverings"
Circa 922,"922 W Washington Blvd, Chicago IL 60607",41.88325,-87.65053,"$1,871 - $5,235",Studio - 3 bd,1.0 - 2.0 ba,515 - 1537 sq ft,"Air Conditioning, Washer/Dryer Hookup, Recycling, High Speed Internet Access, Parking Available, Fitness Center, Pool, Roof Terrace, Grill, Walk-In Closets, Granite Countertops, Pet Friendly, Microwave, Dishwasher, Business Center, Elevator, In Unit Washer & Dryer, Laundry Facilities"
Mondial River West,"910 W Huron St, Chicago IL 60642",41.89531,-87.65048,"$1,875 - $8,277",Studio - 4 bd,1 - 3 ba,655 - 3099 sq ft,"Fitness Center, Furnished Units Available, Doorman, Concierge, Roof Terrace, Controlled Access, Recycling, Grill, In Unit Washer & Dryer, Air Conditioning, Dishwasher, High Speed Internet Access, Hardwood Floors, Walk-In Closets, Granite Countertops, Microwave"
The Montrose,"4334 N Hazel St, Chicago IL 60613",41.9614,-87.6526,"$1,270 - $3,605",Studio - 2 bd,1 - 2 ba,549 - 1025 sq ft,"Pool, Fitness Center, Laundry Facilities, Lounge, In Unit Washer & Dryer, Air Conditioning, High Speed Internet Access, Hardwood Floors"
The Flamingo Apartments,"5500 S Shore Dr, Chicago IL 60637",41.79467,-87.58088,"$1,337 - $5,424",Studio - 2 bd,1 ba,280 - 900 sq ft,"Pool, Fitness Center, Laundry Facilities, Elevator, Dishwasher, High Speed Internet Access, Hardwood Floors, Walk-In Closets"
NEMA Chicago,"1210 S Indiana Ave, Chicago IL 60605",41.867,-87.62326,"$1,777 - $19,900",Studio - 4 bd,1.0 - 4.0 ba,420 - 2703 sq ft,"Air Conditioning, High Speed Internet Access, Parking Available, Utilities Included, Fitness Center, Pool, Roof Terrace, Doorman, Pet Friendly, Playground, Dishwasher, Concierge, Elevator, In Unit Washer & Dryer, Controlled Access"
Oakwood Residence Chicago River North,"220 W Illinois St, Chicago IL 60654",41.89102,-87.63494,"$2,450 - $3,850",Studio - 2 bd,1 - 2 ba,590 - 1107 sq ft,"Pool, Fitness Center, Furnished Units Available, Elevator, Doorman, Concierge, Roof Terrace, Controlled Access, In Unit Washer & Dryer, Air Conditioning, Dishwasher, High Speed Internet Access, Hardwood Floors, Island Kitchen, Granite Countertops, Microwave"
SoNu Digs,"1515 N Fremont St, Chicago IL 60642",41.90911,-87.6508,"$1,295 - $1,625",Studio,1.0,336 - 438 sq ft,"Air Conditioning, Recycling, Granite Countertops, Hardwood Floors, Pet Friendly, Concierge, Elevator, In Unit Washer & Dryer, Controlled Access"
JeffJack Apartments,"601 W Jackson Blvd, Chicago IL 60661",41.87777,-87.6429,"$1,738 - $5,342",Studio - 2 bd,1 - 2 ba,475 - 1342 sq ft,"Pool, Fitness Center, Elevator, Doorman, Concierge, Roof Terrace, Controlled Access, Recycling, In Unit Washer & Dryer, Air Conditioning, Dishwasher, High Speed Internet Access, Hardwood Floors, Walk-In Closets, Granite Countertops, Microwave"
AMLI 808,"808 N Wells St, Chicago IL 60610",41.89703,-87.63454,"$1,875 - $4,425",Studio - 2 bd,1 - 2 ba,385 - 1063 sq ft,"Pool, Fitness Center, Doorman, Gated, In Unit Washer & Dryer, Air Conditioning, Dishwasher, High Speed Internet Access"
AMLI River North,"71 W Hubbard St, Chicago IL 60654",41.88979,-87.63071,"$1,951 - $7,279",Studio - 3 bd,1 - 2 ba,560 - 1752 sq ft,"Pool, Fitness Center, Laundry Facilities, Furnished Units Available, Elevator, Doorman, Concierge, Clubhouse, In Unit Washer & Dryer, Air Conditioning, Dishwasher, High Speed Internet Access, Walk-In Closets, Island Kitchen, Granite Countertops, Microwave"
73 East Lake,"73 E Lake St, Chicago IL 60601",41.88543,-87.62549,"$2,418 - $6,012",Studio - 2 bd,1 - 2 ba,682 - 1246 sq ft,"Pool, Fitness Center, Elevator, Doorman, Concierge, Recycling, Business Center, Grill, In Unit Washer & Dryer, Air Conditioning, Dishwasher, High Speed Internet Access, Hardwood Floors, Granite Countertops, Microwave, Refrigerator"
1001 South State,"1001 S State St, Chicago IL 60605",41.87004,-87.62707,"$1,905 - $7,276",Studio - 3 bd,1 - 3 ba,581 - 2948 sq ft,"Pool, Fitness Center, Playground, Clubhouse, In Unit Washer & Dryer, Dishwasher, High Speed Internet Access, Microwave"
Common Briar,"455 W Briar Pl, Chicago IL 60657",41.93848,-87.64172,"$1,059 - $1,400",Studio bd,1 ba,107 sq ft,"Laundry Facilities, Furnished Units Available, Doorman, Roof Terrace, In Unit Washer & Dryer, Air Conditioning, Dishwasher, Hardwood Floors"
The Bush Temple,"108 W Chicago Ave, Chicago IL 60654",41.89688,-87.6317,"$1,610 - $2,540",Studio - 1 bd,1 ba,321 - 744 sq ft,"Pool, Fitness Center, Elevator, Doorman, Concierge, Roof Terrace, Controlled Access, Recycling, In Unit Washer & Dryer, Air Conditioning, Dishwasher, High Speed Internet Access, Hardwood Floors, Walk-In Closets, Granite Countertops, Microwave"
Morningside South,"171 W Oak St, Chicago IL 60610",41.9003,-87.63362,"$1,750 - $2,800",1 bd,1 - 2 ba,754 - 1200 sq ft,"Laundry Facilities, Elevator, Doorman, Controlled Access, Air Conditioning, High Speed Internet Access, Refrigerator, Tub/Shower"
Arrive South Loop,"1935 S Wabash Ave, Chicago IL 60616",41.85578,-87.62506,"$1,770 - $4,695",1 - 2 bd,1.0 - 2.0 ba,561 - 1040 sq ft,"Air Conditioning, Washer/Dryer Hookup, Recycling, High Speed Internet Access, Gated, Island Kitchen, Parking Available, Fitness Center, Pool, Grill, Hardwood Floors, Walk-In Closets, Pet Friendly, Dishwasher, Business Center, Elevator, In Unit Washer & Dryer, Controlled Access"
Lake and Wells,"210 N Wells St, Chicago IL 60606",41.88601,-87.63432,"$1,795 - $3,535",Studio - 2 bd,1.0 - 2.0 ba,584 - 1326 sq ft,"Granite Countertops, Microwave, Furnished Units Available, In Unit Washer & Dryer, Air Conditioning, High Speed Internet Access, Clubhouse, Fitness Center, Pool, Parking Available, Utilities Included, Doorman, Hardwood Floors, Concierge, Controlled Access, Walk-In Closets, Pet Friendly, Elevator, Dishwasher"
420 E Ohio,"420 E Ohio St, Chicago IL 60611",41.89288,-87.61661,"$1,690 - $5,326",Studio - 3 bd,1.0 - 3.0 ba,580 - 1637 sq ft,"Air Conditioning, High Speed Internet Access, Elevator, Clubhouse, Fitness Center, Pool, Walk-In Closets, Doorman, Hardwood Floors, Granite Countertops, Pet Friendly, Microwave, Dishwasher, Concierge, Furnished Units Available, In Unit Washer & Dryer, Laundry Facilities"
Park Michigan - 1212 S Michigan Ave,"1212 S Michigan Ave, Chicago IL 60605",41.86694,-87.6244,"$1,472 - $3,520",Studio - 2 bd,1 - 2 ba,555 - 1055 sq ft,"Fitness Center, Laundry Facilities, Furnished Units Available, Elevator, Air Conditioning, Dishwasher, High Speed Internet Access, Hardwood Floors"
Beachside Apartments,"5815 N Sheridan Rd, Chicago IL 60660",41.98801,-87.65477,"$1,695 - $1,790",1 - 3 bd,1 - 3 ba,515 - 1254 sq ft,"Fitness Center, Laundry Facilities, Elevator, Controlled Access, Recycling, Grill, Key Fob Entry, Bike Storage, Air Conditioning, Dishwasher, High Speed Internet Access, Walk-In Closets"
AMLI Lofts,"850 S Clark St, Chicago IL 60605",41.87177,-87.63122,"$1,743 - $4,543",Studio - 2 bd,1 - 2 ba,522 - 1264 sq ft,"Pool, Fitness Center, Laundry Facilities, Furnished Units Available, Elevator, Doorman, Clubhouse, Roof Terrace, In Unit Washer & Dryer, Air Conditioning, Dishwasher, High Speed Internet Access, Walk-In Closets, Island Kitchen, Granite Countertops, Microwave"
Cascade,"455 E Waterside Dr, Chicago IL 60601",41.88588,-87.61695,"$2,144 - $4,560",Studio - 3 bd,1 - 2 ba,509 - 1332 sq ft,"Pool, Fitness Center, Elevator, Roof Terrace"
Cityfront Place,"400 N McClurg Ct, Chicago IL 60611",41.88924,-87.61804,"$1,802 - $3,874",Studio - 2 bd,1 - 2 ba,500 - 1168 sq ft,"Pool, Fitness Center, Laundry Facilities, Elevator, Doorman, Concierge, Clubhouse, Roof Terrace, In Unit Washer & Dryer, Air Conditioning, Dishwasher, High Speed Internet Access, Hardwood Floors, Walk-In Closets, Granite Countertops, Microwave"
Arrive LEX,"2138 S Indiana Ave, Chicago IL 60616",41.8531,-87.6227,"$1,920 - $5,195",1 - 2 bd,1.0 - 2.0 ba,697 - 1409 sq ft,"High Speed Internet Access, Yard, Parking Available, Fitness Center, Pool, Walk-In Closets, Hardwood Floors, Granite Countertops, Pet Friendly, Dishwasher, Concierge, Elevator, In Unit Washer & Dryer, Air Conditioning"
Shoreham and Tides,"400 E South Water St, Chicago IL 60601",41.88676,-87.61675,"$1,745 - $4,265",Studio - 2 bd,1 - 2 ba,495 - 1350 sq ft,"Fitness Center, Laundry Facilities, Elevator, Doorman, Playground, Clubhouse, Controlled Access, Business Center, In Unit Washer & Dryer, Air Conditioning, Dishwasher, High Speed Internet Access"
The Shelby,"2300 S Michigan Ave, Chicago IL 60616",41.85079,-87.62422,"$1,634 - $2,960",1 - 2 bd,1 - 2 ba,655 - 1270 sq ft,"Fitness Center, Concierge, Bike Storage, Package Service, In Unit Washer & Dryer, Air Conditioning, Dishwasher, High Speed Internet Access"
River West Lofts,"925 W Huron St, Chicago IL 60642",41.89467,-87.65101,"$1,750 - $2,450",Studio - 2 bd,1 ba,550 - 1275 sq ft,"Fitness Center, Laundry Facilities, Elevator, Doorman, Clubhouse, Roof Terrace, Controlled Access, Recycling, Air Conditioning, Dishwasher, Loft Layout, High Speed Internet Access, Island Kitchen, Granite Countertops, Microwave, Refrigerator"
Coast at Lakeshore East,"345 E Wacker Dr, Chicago IL 60601",41.88729,-87.61852,"$2,005 - $13,601",Studio - 3 bd,1 - 3 ba,522 - 2766 sq ft,"Pool, Fitness Center, Laundry Facilities, Elevator, Doorman, Concierge, Clubhouse, Roof Terrace, In Unit Washer & Dryer, Air Conditioning, Dishwasher, High Speed Internet Access, Walk-In Closets, Microwave, Refrigerator, Wi-Fi"
River North Park Apartments,"320 W Illinois St, Chicago IL 60654",41.89139,-87.6358,"$1,505 - $4,080",Studio - 2 bd,1.0 - 2.0 ba,430 - 1181 sq ft,"High Speed Internet Access, Laundry Facilities, Parking Available, Utilities Included, Fitness Center, Pool, Walk-In Closets, Pet Friendly, Smoke Free, Elevator, In Unit Washer & Dryer, Air Conditioning"
Avenir,"730 N Milwaukee Ave, Chicago IL 60642",41.89494,-87.65382,"$1,450",Studio bd,1 ba,369 sq ft,"Pool, Fitness Center, Furnished Units Available, Elevator, Concierge, Clubhouse, Roof Terrace, Controlled Access, In Unit Washer & Dryer, Air Conditioning, Dishwasher, High Speed Internet Access, Hardwood Floors, Walk-In Closets, Granite Countertops, Microwave"
40 East Oak,"40 E Oak St, Chicago IL 60611",41.90102,-87.6268,"$1,425",Studio bd,1 ba,430 sq ft,"Fitness Center, Laundry Facilities, Elevator, Doorman, Air Conditioning, High Speed Internet Access, Hardwood Floors, Walk-In Closets, Microwave, Refrigerator, Wi-Fi, Tub/Shower"
Sentral Michigan Avenue,"808 S Michigan Ave, Chicago IL 60605",41.87151,-87.62474,"$1,702 - $14,478",Studio - 4 bd,1.0 - 3.0 ba,435 - 2390 sq ft,"High Speed Internet Access, Parking Available, Elevator, Fitness Center, Pool, Pet Friendly, Dishwasher, Furnished Units Available, In Unit Washer & Dryer, Air Conditioning"
The Bush Temple II,"810 N Clark St, Chicago IL 60610",41.89709,-87.63155,"$1,820 - $2,540",Studio - 1 bd,1 ba,329 - 654 sq ft,"Pool, Elevator, Doorman, Concierge, In Unit Washer & Dryer, Air Conditioning, Dishwasher, High Speed Internet Access, Hardwood Floors, Walk-In Closets, Refrigerator, Tub/Shower"
Alta at K Station,"555 W Kinzie St, Chicago IL 60654",41.88882,-87.64162,"$1,647 - $5,598",Studio - 3 bd,1 - 2.5 ba,508 - 1972 sq ft,"Pool, Fitness Center, Furnished Units Available, Elevator, Doorman, Concierge, Roof Terrace, Recycling, In Unit Washer & Dryer, Air Conditioning, Dishwasher, Washer/Dryer Hookup, High Speed Internet Access, Hardwood Floors, Walk-In Closets, Island Kitchen"
North Harbor Tower,"175 N Harbor Dr, Chicago IL 60601",41.88545,-87.61547,"$1,510 - $6,255",Studio - 3 bd,1 - 2.5 ba,465 - 1785 sq ft,"Pool, Fitness Center, Laundry Facilities, Elevator, In Unit Washer & Dryer, Air Conditioning, Dishwasher, High Speed Internet Access"
The Lofts at Gin Alley,"120 N Green St, Chicago IL 60607",41.88392,-87.64887,"$1,255 - $10,233",Studio - 3 bd,1 - 2 ba,275 - 1927 sq ft,"Fitness Center, Concierge, Controlled Access, Property Manager on Site, In Unit Washer & Dryer, Air Conditioning, High Speed Internet Access, Hardwood Floors"
City Club Apartments MDA,"63 E Lake St, Chicago IL 60601",41.88551,-87.62591,"$1,665 - $3,340",Studio - 2 bd,1 - 2 ba,370 - 1285 sq ft,"Pool, Fitness Center, Laundry Facilities, Furnished Units Available, Elevator, Concierge, Clubhouse, Roof Terrace, In Unit Washer & Dryer, Air Conditioning, Dishwasher, High Speed Internet Access, Hardwood Floors, Walk-In Closets, Island Kitchen, Granite Countertops"
Marquee at Block 37,"25 W Randolph St, Chicago IL 60601",41.88425,-87.62882,"$1,896 - $5,823",Studio - 3 bd,1 - 3 ba,572 - 2102 sq ft,"Pool, Fitness Center, Business Center, Conference Room, In Unit Washer & Dryer, Office, Window Coverings, Heating"
820 Michigan,"820 S Michigan Ave, Chicago IL 60605",41.87112,-87.62473,"$1,395 - $2,699",Studio - 2 bd,1 - 2 ba,340 - 800 sq ft,"Fitness Center, Laundry Facilities, Elevator, Roof Terrace, Controlled Access, Grill, Community-Wide WiFi, Key Fob Entry, Air Conditioning, Dishwasher, High Speed Internet Access, Microwave, Refrigerator, Wi-Fi, Tub/Shower, Freezer"
1100 N Dearborn,"1100 N Dearborn St, Chicago IL 60610",41.90206,-87.63025,"$1,415 - $1,495",Studio bd,1 ba,450 - 500 sq ft,"Fitness Center, Laundry Facilities, Elevator, Doorman, Concierge, Roof Terrace, Controlled Access, Recycling, Air Conditioning, Dishwasher, High Speed Internet Access, Hardwood Floors, Walk-In Closets, Microwave, Refrigerator, Wi-Fi"
Century Tower,"182 W Lake St, Chicago IL 60601",41.88594,-87.63382,"$1,555 - $3,070",Studio - 2 bd,1 - 2 ba,421 - 908 sq ft,"Fitness Center, Laundry Facilities, Elevator, Controlled Access, In Unit Washer & Dryer, Air Conditioning, High Speed Internet Access, Smoke Free"
Regents Park,"5035 S East End Ave, Chicago IL 60615",41.80368,-87.58492,"$1,375 - $4,828",Studio - 4 bd,1.0 - 9.0 ba,550 - 2120 sq ft,"High Speed Internet Access, Parking Available, Utilities Included, Fitness Center, Pool, Pet Friendly, Dishwasher, Air Conditioning, Elevator, In Unit Washer & Dryer, Laundry Facilities"
Arrive Streeterville,"333 E Ontario St, Chicago IL 60611",41.89324,-87.61879,"$1,475 - $4,635",Studio - 3 bd,1.0 - 2.5 ba,496 - 2261 sq ft,"Air Conditioning, High Speed Internet Access, Controlled Access, Parking Available, Clubhouse, Fitness Center, Pool, Doorman, Hardwood Floors, Pet Friendly, Dishwasher, Business Center, Elevator, Laundry Facilities"
731 Plymouth,"731 S Plymouth Ct, Chicago IL 60605",41.87267,-87.62832,"$1,599 - $2,895",1 - 3 bd,1 - 1.5 ba,640 - 1250 sq ft,"Fitness Center, Laundry Facilities, Furnished Units Available, Elevator, Controlled Access, Business Center, Key Fob Entry, 24 Hour Availability, Air Conditioning, Dishwasher, Loft Layout, High Speed Internet Access, Hardwood Floors, Walk-In Closets, Microwave, Refrigerator"
LINEA by Common,"215 W Lake St, Chicago IL 60606",41.88546,-87.63463,"$1,912 - $5,510",Studio - 3 bd,1 - 2 ba,662 - 1620 sq ft,"Pool, Fitness Center, Furnished Units Available, Elevator, Doorman, Concierge, Clubhouse, Grill, In Unit Washer & Dryer, Air Conditioning, Dishwasher, Walk-In Closets"
The Maynard at 5115 N Sheridan,"5101-5115 N Sheridan Rd, Chicago IL 60640",41.9755,-87.65455,"$1,100 - $1,500",Studio - 1 bd,1 ba,355 - 610 sq ft,"Fitness Center, Laundry Facilities, Elevator, Clubhouse, In Unit Washer & Dryer, Air Conditioning, Dishwasher, High Speed Internet Access, Walk-In Closets, Granite Countertops, Microwave, Refrigerator"
THREE Old Town Park,"228 W Hill St, Chicago IL 60610",41.90227,-87.63536,"$1,864 - $8,500",Studio - 2 bd,1.0 - 2.5 ba,505 - 2056 sq ft,"Island Kitchen, Parking Available, Elevator, Fitness Center, Pool, Walk-In Closets, Refrigerator, Pet Friendly, Tub/Shower, Microwave, Dishwasher, Furnished Units Available, In Unit Washer & Dryer, Air Conditioning"
Presidential Towers,"555 W Madison St, Chicago IL 60661",41.8816,-87.64169,"$1,370 - $3,245",Studio - 2 bd,1 - 2 ba,471 - 1101 sq ft,"Fitness Center, Laundry Facilities, Doorman, Concierge, In Unit Washer & Dryer, Air Conditioning, High Speed Internet Access, Walk-In Closets"
Maynard At Elaine Place,"3419 N Elaine Pl, Chicago IL 60657",41.94385,-87.64711,"$1,675 - $3,840",Studio - 3 bd,1 - 2 ba,450 - 1920 sq ft,"Controlled Access, Public Transportation, Online Services, Vintage Building, In Unit Washer & Dryer, Air Conditioning, Dishwasher, Hardwood Floors, Walk-In Closets, Granite Countertops, Microwave, Refrigerator"
Lake Shore Plaza,"445 E Ohio St, Chicago IL 60611",41.89239,-87.61619,"$1,425 - $2,400",Studio - 2 bd,1 - 2 ba,590 - 950 sq ft,"Pool, Fitness Center, Laundry Facilities, Doorman, Air Conditioning, Dishwasher, High Speed Internet Access, Hardwood Floors"
Seneca,"200 E Chestnut St, Chicago IL 60611",41.89866,-87.62145,"$1,447 - $4,202",Studio - 2 bd,1 - 2 ba,265 - 1333 sq ft,"Air Conditioning, Dishwasher, Walk-In Closets, Microwave"
14 West Elm Apartments,"14 W Elm St, Chicago IL 60610",41.90332,-87.62931,"$1,295 - $2,450",Studio - 2 bd,1.0 - 2.0 ba,390 - 950 sq ft,"Recycling, High Speed Internet Access, Controlled Access, Elevator, Utilities Included, Fitness Center, Walk-In Closets, Granite Countertops, Doorman, Hardwood Floors, Refrigerator, Playground, Pet Friendly, Dishwasher, Air Conditioning, Furnished Units Available, Island Kitchen, Laundry Facilities"
Beachwalk Apartments,"420 W Fullerton Pky, Chicago IL 60614",41.92592,-87.64011,"$1,150 - $3,240",Studio - 2 bd,1 - 1.5 ba,210 - 770 sq ft,"Fitness Center, Laundry Facilities, Elevator, Controlled Access, Air Conditioning, Hardwood Floors, Walk-In Closets, Crown Molding"
21st Street Lofts,"61 E 21st St, Chicago IL 60616",41.85411,-87.62466,"$1,150 - $2,499",Studio - 2 bd,1 - 2 ba,320 - 900 sq ft,"Fitness Center, Laundry Facilities, Elevator, Roof Terrace, Air Conditioning, Dishwasher, Loft Layout, High Speed Internet Access"
The Oliver on LaSalle,"1140 N Lasalle St, Chicago IL 60610",41.90325,-87.63367,"$1,108 - $1,700",Studio - 1 bd,1 ba,248 - 515 sq ft,"Laundry Facilities, Elevator, Doorman, Clubhouse, Air Conditioning, High Speed Internet Access, Hardwood Floors, Walk-In Closets, Granite Countertops, Microwave, Refrigerator, Tub/Shower"
Park View Apartments,"1936 N Clark St, Chicago IL 60614",41.91757,-87.63594,"$1,020 - $2,295",Studio - 2 bd,1 ba,247 - 806 sq ft,"Fitness Center, Laundry Facilities, Elevator, Doorman, Concierge, Controlled Access, Recycling, Business Center, Air Conditioning, Dishwasher, High Speed Internet Access, Hardwood Floors, Walk-In Closets, Granite Countertops, Refrigerator, Tub/Shower"
The Duncan,"1515 W Monroe St, Chicago IL 60607",41.87982,-87.66532,"$1,602 - $2,660",Studio - 1 bd,1 ba,351 - 657 sq ft,"Pool, Fitness Center, Elevator, Doorman, Concierge, Clubhouse, Roof Terrace, Controlled Access, In Unit Washer & Dryer, Air Conditioning, Dishwasher, Loft Layout, High Speed Internet Access, Hardwood Floors, Microwave, Wi-Fi"
The Lawrence House,"1020 W Lawrence Ave, Chicago IL 60640",41.96943,-87.65576,"$925 - $2,940",Studio - 2 bd,1 - 2.5 ba,237 - 1031 sq ft,"Pool, Fitness Center, Elevator, Doorman, Concierge, Clubhouse, Roof Terrace, Controlled Access, In Unit Washer & Dryer, Air Conditioning, High Speed Internet Access, Hardwood Floors, Walk-In Closets, Granite Countertops, Yard, Microwave"
Prairie Shores,"2851 S Martin Luther King Dr, Chicago IL 60616",41.84254,-87.61653,"$839 - $4,838",Studio - 2 bd,1 ba,400 - 890 sq ft,"Fitness Center, Laundry Facilities, Business Center, Lounge, Air Conditioning, Dishwasher, High Speed Internet Access, Hardwood Floors"
Times Square Apartments,"869 W Buena Ave, Chicago IL 60613",41.958,-87.65235,"$1,050 - $3,493",Studio - 2 bd,1 - 2 ba,280 - 1060 sq ft,"Fitness Center, Laundry Facilities, Elevator, Controlled Access, Air Conditioning, Dishwasher, Hardwood Floors, Walk-In Closets"
The Deco North Lake Shore,"1400 N Lake Shore Dr, Chicago IL 60610",41.90798,-87.62643,"$1,079 - $5,130",Studio - 3 bd,1 - 2 ba,350 - 1597 sq ft,"Fitness Center, Laundry Facilities, Elevator, Doorman, Concierge, Roof Terrace, Controlled Access, Grill, Air Conditioning, Dishwasher, High Speed Internet Access, Hardwood Floors, Granite Countertops, Microwave, Refrigerator, Tub/Shower"
Midpointe Apartments,"4050-4064 W 115th St, Chicago IL 60655",41.68561,-87.72125,"$1,000 - $1,925",Studio - 2 bd,1 - 2 ba,320 - 1000 sq ft,"Pool, Fitness Center, Laundry Facilities, Elevator, Air Conditioning, Dishwasher, High Speed Internet Access, Hardwood Floors, Walk-In Closets, Microwave, Refrigerator, Tub/Shower"
The Main,"847 Chicago Ave, Evanston IL 60202",42.03363,-87.67889,"$2,465 - $6,174",Studio - 3 bd,1 - 2 ba,500 - 1424 sq ft,"Fitness Center, Elevator, Controlled Access, Recycling, Business Center, Grill, Gated, 24 Hour Availability, In Unit Washer & Dryer, Dishwasher, High Speed Internet Access, Hardwood Floors, Walk-In Closets, Island Kitchen, Microwave, Refrigerator"
One Bennett Park,"451 E Grand Ave, Chicago IL 60611",41.89157,-87.6155,"$3,720 - $8,400",1 - 3 bd,1 - 2.5 ba,900 - 1850 sq ft,"Pool, Fitness Center, Laundry Facilities, Doorman, In Unit Washer & Dryer, Dishwasher, Hardwood Floors, Granite Countertops"
Madison Throop Place,"1237 W Madison, Chicago IL 60607",41.88133,-87.6589,"$3,000 - $4,300",2 - 3 bd,2 ba,980 - 1380 sq ft,"Elevator, Concierge, Controlled Access, Bike Storage, In Unit Washer & Dryer, Air Conditioning, Dishwasher, Washer/Dryer Hookup, High Speed Internet Access, Hardwood Floors, Island Kitchen, Granite Countertops"
Optima Lakeview,"3478 N Broadway St, Chicago IL 60657",41.94474,-87.64572,"$2,400 - $10,425",1 - 3 bd,1 - 3 ba,668 - 2003 sq ft,"Pool, Fitness Center, Elevator, Doorman, Concierge, Clubhouse, Roof Terrace, Business Center, Air Conditioning, Dishwasher, High Speed Internet Access, Microwave"
Landmark West Loop,"1035 W Van Buren St, Chicago IL 60607",41.87638,-87.6536,"$1,800 - $5,795",Studio - 2 bd,1.0 - 2.0 ba,739 sq ft,"Stainless Steel Appliances, Tile Floors, Pool, Doorman, Hardwood Floors, Pet Friendly, Elevator, In Unit Washer & Dryer, Laundry Facilities"
500 Lake Shore Drive,"500 N Lake Shore Dr, Chicago IL 60611",41.89146,-87.61481,"$2,100 - $4,495",Studio - 2 bd,1.0 - 2.0 ba,743 sq ft,"High Speed Internet Access, Laundry Facilities, Furnished, Pool, Pet Friendly, Air Conditioning, Smoke Free, Furnished Units Available, In Unit Washer & Dryer, Controlled Access"
SKY55,"1255 S Michigan Ave, Chicago IL 60605",41.86606,-87.62364,"$1,970 - $3,885",1 - 2 bd,1 - 2.5 ba,656 - 1785 sq ft,"Pool, Fitness Center, Laundry Facilities, Concierge, In Unit Washer & Dryer, Air Conditioning, Dishwasher, High Speed Internet Access"
North+Vine,"633 W North Ave, Chicago IL 60610",41.91068,-87.64471,"$2,025 - $4,275",Studio - 3 bd,1 - 3 ba,515 - 1965 sq ft,"Pool, Fitness Center, Furnished Units Available, Elevator, Doorman, Concierge, Clubhouse, Roof Terrace, In Unit Washer & Dryer, Air Conditioning, Dishwasher, High Speed Internet Access, Hardwood Floors, Walk-In Closets, Granite Countertops, Yard"
1313 Randolph Street Lofts,"1313 W Randolph St, Chicago IL 60607",41.88381,-87.65935,"$1,798 - $3,048",Studio - 2 bd,1 - 2 ba,470 - 1270 sq ft,"Fitness Center, Elevator, Clubhouse, Roof Terrace, Controlled Access, Recycling, Grill, Conference Room, In Unit Washer & Dryer, Air Conditioning, Dishwasher, Loft Layout, High Speed Internet Access, Microwave, Refrigerator, Wi-Fi"
K2 Apartments,"365 N Halsted St, Chicago IL 60661",41.88876,-87.64647,"$1,766 - $5,067",Studio - 3 bd,1 - 3 ba,481 - 2013 sq ft,"Pool, Fitness Center, Furnished Units Available, Elevator, Doorman, Concierge, Clubhouse, Controlled Access, In Unit Washer & Dryer, Air Conditioning, Dishwasher, High Speed Internet Access, Hardwood Floors, Walk-In Closets, Granite Countertops, Microwave"
Eleven40,"1140 Wabash Ave, Chicago IL 60605",41.8679,-87.62624,"$1,783 - $3,694",Studio - 2 bd,1 - 2 ba,380 - 1030 sq ft,"Pool, Fitness Center, Elevator, Doorman, Concierge, Roof Terrace, Recycling, Business Center, In Unit Washer & Dryer, Air Conditioning, Dishwasher, High Speed Internet Access, Hardwood Floors, Island Kitchen, Microwave, Refrigerator"
Twin Towers,"1649 E 50th St, Chicago IL 60615",41.80412,-87.58448,"$1,180 - $3,177",Studio - 2 bd,1 ba,416 - 752 sq ft,"Fitness Center, Laundry Facilities, Concierge, Business Center"
Park 205,"205 W Touhy Ave, Park Ridge IL 60068",42.01038,-87.82397,"$1,960 - $4,940",1 - 3 bd,1 - 2 ba,593 - 1423 sq ft,"Pool, Fitness Center, Clubhouse, Business Center, In Unit Washer & Dryer, Air Conditioning, Hardwood Floors, Walk-In Closets"
Wells Place Apartments,"837-839 S Wells St, Chicago IL 60607",41.87146,-87.63322,"$2,299 - $3,602",1 - 2 bd,1 - 2 ba,782 - 1170 sq ft,"Elevator, Controlled Access, Business Center, Grill, In Unit Washer & Dryer, Air Conditioning, Dishwasher, Hardwood Floors"
Luxe on Madison,"1222 W Madison St, Chicago IL 60607",41.88179,-87.65837,"$1,878 - $4,050",Studio - 2 bd,1 - 2 ba,522 - 1410 sq ft,"Fitness Center, Elevator, Controlled Access, Business Center, In Unit Washer & Dryer, Air Conditioning, High Speed Internet Access, Walk-In Closets"
1241 N. Milwaukee,"1237-1241 N Milwaukee Ave, Chicago IL 60622",41.9045,-87.66789,"$2,656 - $2,858",1 - 2 bd,1 ba,937 - 986 sq ft,"Gated, Bike Storage, Package Service, Property Manager on Site"
727 West Madison,"727 W Madison St, Chicago IL 60661",41.8815,-87.64692,"$2,179 - $9,743",Studio - 3 bd,1 - 3 ba,490 - 1585 sq ft,"Pool, Fitness Center, Elevator, Doorman, Concierge, Clubhouse, Recycling, Business Center, In Unit Washer & Dryer, Air Conditioning, Dishwasher, High Speed Internet Access"
Spoke,"728 N Morgan St, Chicago IL 60642",41.89589,-87.65291,"$1,699 - $9,038",Studio - 3 bd,1 - 2.5 ba,417 - 2360 sq ft,"Pool, Fitness Center, Elevator, Concierge, Roof Terrace, Recycling, Business Center, Pet Care, In Unit Washer & Dryer, Air Conditioning, Dishwasher, High Speed Internet Access"
Chestnut Place,"8 W Chestnut St, Chicago IL 60610",41.89834,-87.62861,"$1,895 - $2,944",1 - 2 bd,1.0 - 1.5 ba,655 - 1024 sq ft,"Recycling, Laundry Facilities, Parking Available, Fitness Center, Pool, Walk-In Closets, Hardwood Floors, Granite Countertops, Pet Friendly, Air Conditioning"
Two West,"2 W Delaware Pl, Chicago IL 60610",41.89932,-87.62878,"$3,928 - $8,400",1 - 5 bd,1 - 5 ba,920 - 4085 sq ft,"Pool, Fitness Center, Elevator, Doorman, In Unit Washer & Dryer, Air Conditioning, Dishwasher, High Speed Internet Access, Hardwood Floors, Walk-In Closets, Granite Countertops, Microwave"
Atwater Apartments,"355 E Ohio St, Chicago IL 60611",41.89221,-87.61801,"$1,807 - $10,888",Studio - 3 bd,1 - 2 ba,576 - 1802 sq ft,"Pool, Fitness Center, Elevator, Doorman, Concierge, Clubhouse, Recycling, Business Center, In Unit Washer & Dryer, Air Conditioning, Dishwasher, Washer/Dryer Hookup, High Speed Internet Access, Hardwood Floors, Walk-In Closets, Island Kitchen"
2950 North Sheridan,"2950 N Sheridan Rd, Chicago IL 60657",41.9359,-87.63987,"$2,411 - $7,298",Studio - 3 bd,1 - 2.5 ba,891 - 1917 sq ft,"Fitness Center, Concierge, Clubhouse, Controlled Access, In Unit Washer & Dryer, Air Conditioning, Dishwasher, High Speed Internet Access, Hardwood Floors, Island Kitchen, Granite Countertops, Microwave"
The Western,"1920 N Milwaukee Ave, Chicago IL 60647",41.91639,-87.68708,"$3,395",2 bd,2 ba,1079 sq ft,"Fitness Center, Controlled Access, Recycling, Gated, In Unit Washer & Dryer, Air Conditioning, Dishwasher, High Speed Internet Access, Hardwood Floors, Walk-In Closets, Microwave, Refrigerator"
465 North Park,"465 N Park Dr, Chicago IL 60611",41.89069,-87.61908,"$2,128 - $28,390",Studio - 3 bd,1 - 3.5 ba,523 - 2137 sq ft,"Pool, Fitness Center, Elevator, Doorman, Concierge, Clubhouse, Roof Terrace, Controlled Access, In Unit Washer & Dryer, Air Conditioning, Dishwasher, Loft Layout, High Speed Internet Access, Hardwood Floors, Walk-In Closets, Island Kitchen"
SCIO AT THE MEDICAL DISTRICT,"901 S Ashland Ave, Chicago IL 60607",41.87074,-87.66579,"$1,720 - $3,479",Studio - 2 bd,1 - 2 ba,553 - 1126 sq ft,"Pool, Fitness Center, Laundry Facilities, Elevator, Doorman, Concierge, Clubhouse, Controlled Access, Air Conditioning, Dishwasher, High Speed Internet Access, Hardwood Floors, Walk-In Closets, Island Kitchen, Granite Countertops, Microwave"
Lofts At River East,"401-465 E Illinois St, Chicago IL 60611",41.89083,-87.61675,"$1,950 - $3,650",Studio - 3 bd,1 - 2 ba,648 - 1739 sq ft,"Fitness Center, Laundry Facilities, Elevator, Doorman, Concierge, Clubhouse, Controlled Access, Recycling, In Unit Washer & Dryer, Air Conditioning, Dishwasher, Loft Layout, High Speed Internet Access, Hardwood Floors, Walk-In Closets, Granite Countertops"
The Sinclair,"102 W Division St, Chicago IL 60610",41.90408,-87.63201,"$2,578 - $14,051",Studio - 4 bd,1 - 3 ba,505 - 2674 sq ft,"Pool, Fitness Center, Elevator, Doorman, Concierge, Roof Terrace, Controlled Access, Recycling, In Unit Washer & Dryer, Air Conditioning, Dishwasher, Washer/Dryer Hookup, High Speed Internet Access, Hardwood Floors, Walk-In Closets, Island Kitchen"
State & Chestnut,"845 N State St, Chicago IL 60610",41.89801,-87.62775,"$2,054 - $7,379",Studio - 2 bd,1 - 2 ba,463 - 1149 sq ft,"Pool, Fitness Center, Laundry Facilities, 24 Hour Availability"
Niche 905,"905 N Orleans St, Chicago IL 60610",41.89932,-87.63697,"$2,126 - $4,355",Studio - 3 bd,1.0 - 3.0 ba,576 - 1518 sq ft,"Business Center, Recycling, High Speed Internet Access, Fitness Center, Pool, Roof Terrace, Doorman, Hardwood Floors, Walk-In Closets, Granite Countertops, Microwave, Dishwasher, Concierge, Pet Friendly, Elevator, In Unit Washer & Dryer, Air Conditioning"
1647 N. Milwaukee,"1647 N Milwaukee Ave, Chicago IL 60647",41.91151,-87.67876,"$1,820 - $2,400",Studio - 1 bd,1 ba,600 - 723 sq ft,"Controlled Access, Package Service, Property Manager on Site, Dry Cleaning Service"
Reside on Jackson,"1245 W Jackson Blvd, Chicago IL 60607",41.87726,-87.65871,"$2,500 - $6,797",1 - 3 bd,1 - 2 ba,800 - 1330 sq ft,"Concierge, Gated, Maintenance on site, Spa, In Unit Washer & Dryer, Dishwasher, Hardwood Floors, Crown Molding"
Burnham Pointe,"730 S Clark St, Chicago IL 60605",41.87299,-87.63105,"$1,914 - $8,698",1 - 2 bd,1 - 3 ba,735 - 2078 sq ft,"Fitness Center, Elevator, Doorman, Controlled Access, Recycling, Grill, Gated, Community-Wide WiFi, In Unit Washer & Dryer, Air Conditioning, Dishwasher, High Speed Internet Access, Hardwood Floors, Walk-In Closets, Granite Countertops, Microwave"
Hensley Chicago,"707 N Wells St, Chicago IL 60654",41.89513,-87.63382,"$2,670 - $3,750",1 - 3 bd,1 - 3 ba,824 - 1470 sq ft,"Fitness Center, Elevator, Controlled Access, Grill, In Unit Washer & Dryer, Air Conditioning, Dishwasher, High Speed Internet Access, Hardwood Floors, Walk-In Closets, Island Kitchen, Microwave"
The Cooper,"720 S Wells St, Chicago IL 60607",41.87293,-87.63387,"$1,697 - $11,292",Studio - 3 bd,1 - 3.5 ba,451 - 1997 sq ft,"Pool, Fitness Center, Elevator, Doorman, Concierge, Roof Terrace, Recycling, Business Center, Air Conditioning, High Speed Internet Access, Hardwood Floors, Island Kitchen"
Eight Eleven Uptown,"811 W Agatite Ave, Chicago IL 60640",41.9622,-87.65027,"$1,622 - $5,540",Studio - 3 bd,1 - 3.5 ba,525 - 2250 sq ft,"Pool, Fitness Center, Elevator, Concierge, Clubhouse, Roof Terrace, Controlled Access, Recycling, In Unit Washer & Dryer, Air Conditioning, Dishwasher, High Speed Internet Access, Walk-In Closets, Island Kitchen, Microwave, Refrigerator"
1000 South Clark,"1000 S Clark St., Chicago IL 60605",41.86993,-87.63069,"$1,740 - $8,889",Studio - 3 bd,1 - 3.5 ba,537 - 2730 sq ft,"Pool, Fitness Center, Elevator, Doorman, Concierge, Clubhouse, Controlled Access, Recycling, In Unit Washer & Dryer, Air Conditioning, Dishwasher, High Speed Internet Access, Granite Countertops, Microwave, Refrigerator, Tub/Shower"
Roosevelt Collection Lofts,"150 W Roosevelt Rd, Chicago IL 60605",41.86849,-87.63218,"$2,201 - $4,215",1 - 2 bd,1 - 2 ba,759 - 1550 sq ft,"Fitness Center, Elevator, Doorman, Concierge, Playground, Clubhouse, Roof Terrace, Controlled Access, In Unit Washer & Dryer, Air Conditioning, Dishwasher, Washer/Dryer Hookup, Loft Layout, High Speed Internet Access, Hardwood Floors, Walk-In Closets"
Scholars Corner Apartments,"5100 S Cornell Ave, Chicago IL 60615",41.80219,-87.58679,"$1,242 - $3,544",Studio - 2 bd,1 ba,425 - 875 sq ft,"Fitness Center, Laundry Facilities, Furnished Units Available, Elevator, High Speed Internet Access, Hardwood Floors, Wi-Fi, Ceiling Fans"
25 N Bishop,"17 N Bishop St, Chicago IL 60607",41.88225,-87.6634,"$3,695 - $4,150",3 bd,2 ba,1600 - 2800 sq ft,"In Unit Washer & Dryer, Dishwasher, Hardwood Floors, Walk-In Closets"
Millennium on LaSalle,"29 S LaSalle St, Chicago IL 60603",41.88114,-87.63179,"$1,608 - $4,168",Studio - 2 bd,1.0 - 2.0 ba,490 - 1290 sq ft,"Washer/Dryer Hookup, Fitness Center, Pool, Pet Friendly, Dishwasher, Concierge, Furnished Units Available, In Unit Washer & Dryer, Air Conditioning"
Hubbard 221,"221 W Hubbard St, Chicago IL 60654",41.88981,-87.63483,"$2,193 - $13,353",Studio - 3 bd,1 - 2 ba,435 - 1726 sq ft,"Pool, Fitness Center, Concierge, Business Center, In Unit Washer & Dryer, Air Conditioning, Dishwasher, High Speed Internet Access"
The Van Morgan,"1002 W Van Buren St, Chicago IL 60607",41.87679,-87.65223,"$2,475 - $2,979",2 bd,2 ba,1085 sq ft,"Elevator, Roof Terrace, Controlled Access, Grill, In Unit Washer & Dryer, Air Conditioning, Dishwasher, High Speed Internet Access, Hardwood Floors, Walk-In Closets, Granite Countertops, Microwave"
NEW - Arthurs of Old Town Apartments,"300 W Division St, Chicago IL 60610",41.90408,-87.63619,"$1,846 - $3,206",Studio - 2 bd,1 ba,543 - 840 sq ft,"Fitness Center, Elevator, Roof Terrace, Business Center, In Unit Washer & Dryer, Air Conditioning, Dishwasher, Washer/Dryer Hookup"
EnV Chicago,"161 W Kinzie St, Chicago IL 60654",41.88883,-87.63368,"$1,913 - $9,337",Studio - 2 bd,1 - 2 ba,496 - 2029 sq ft,"Pool, Fitness Center, Furnished Units Available, Elevator, Concierge, Clubhouse, Roof Terrace, Controlled Access, In Unit Washer & Dryer, Air Conditioning, Dishwasher, High Speed Internet Access, Hardwood Floors, Walk-In Closets, Granite Countertops, Microwave"
100 West Chestnut Apartments,"100 W Chestnut St, Chicago IL 60610",41.89819,-87.63173,"$1,839 - $3,161",1 - 2 bd,1.0 - 2.0 ba,700 - 1050 sq ft,"Air Conditioning, Recycling, High Speed Internet Access, Controlled Access, Tile Floors, Parking Available, Fitness Center, Pool, Walk-In Closets, Doorman, Granite Countertops, Refrigerator, Pet Friendly, Dishwasher, Business Center, Elevator, Wi-Fi, Laundry Facilities"
Aspire Residences,"2111 S Wabash Ave, Chicago IL 60616",41.85337,-87.62517,"$1,849 - $7,554",1 - 3 bd,1 - 2 ba,529 - 1411 sq ft,"Pool, Fitness Center, Conference Room, Bike Storage"
Parc Huron,"469 W Huron St, Chicago IL 60654",41.89444,-87.64114,"$2,128 - $4,678",1 - 3 bd,1 - 2 ba,614 - 1443 sq ft,"Pool, Fitness Center, Laundry Facilities, Elevator, Concierge, Controlled Access, Recycling, Business Center, In Unit Washer & Dryer, Air Conditioning, Dishwasher, High Speed Internet Access, Hardwood Floors, Walk-In Closets, Island Kitchen, Granite Countertops"
GRAND PLAZA,"540 N State St, Chicago IL 60654",41.8919,-87.62852,"$1,952 - $5,486",Studio - 2 bd,1 - 2 ba,690 - 1325 sq ft,"Pool, Fitness Center, Clubhouse, Roof Terrace, Controlled Access, Business Center, Grill, 24 Hour Availability, In Unit Washer & Dryer, Air Conditioning, Dishwasher, High Speed Internet Access, Hardwood Floors, Walk-In Closets, Granite Countertops, Microwave"
The Paragon,"1326 S Michigan Ave, Chicago IL 60605",41.86487,-87.62456,"$1,808 - $6,959",Studio - 3 bd,1 - 3 ba,533 - 1777 sq ft,"Pool, Fitness Center, Elevator, Doorman, Concierge, Roof Terrace, Recycling, Business Center, In Unit Washer & Dryer, Air Conditioning, Dishwasher, High Speed Internet Access, Walk-In Closets, Island Kitchen, Microwave, Refrigerator"
SoNo East,"840 W Blackhawk St, Chicago IL 60642",41.90896,-87.6495,"$1,846 - $3,746",Studio - 2 bd,1.0 - 2.0 ba,5 - 1179 sq ft,"Air Conditioning, 24 Hour Availability, In Unit Washer & Dryer, Parking Available, Fitness Center, Pool, Pet Friendly, Microwave, Ice Maker, Business Center, Wi-Fi, Dishwasher"
Parkline Chicago,"60 E Randolph St, Chicago IL 60601",41.88484,-87.6259,"$1,835 - $19,750",Studio - 4 bd,1 - 4 ba,545 - 3555 sq ft,"Pool, Fitness Center, Elevator, Doorman, Concierge, Roof Terrace, Controlled Access, Recycling, In Unit Washer & Dryer, Air Conditioning, Dishwasher, High Speed Internet Access, Hardwood Floors, Walk-In Closets, Granite Countertops, Microwave"
Wrigleyville Lofts,"949 W Dakin St, Chicago IL 60613",41.95347,-87.65328,"$1,840 - $5,159",1 - 2 bd,1 - 2 ba,603 - 996 sq ft,"Fitness Center, Roof Terrace, Grill, Pet Washing Station, Air Conditioning, Dishwasher, Refrigerator, Disposal"
The Otis,"1435 W 15th St, Chicago IL 60608",41.86125,-87.6633,"$2,070 - $2,665",1 - 2 bd,1 ba,384 - 856 sq ft,"Fitness Center, Elevator, Roof Terrace, Controlled Access, Recycling, Community-Wide WiFi, Key Fob Entry, 24 Hour Availability, In Unit Washer & Dryer, Air Conditioning, Dishwasher, High Speed Internet Access, Walk-In Closets, Island Kitchen, Granite Countertops, Microwave"
Porte,"855 W Madison St, Chicago IL 60607",41.88117,-87.64918,"$2,150 - $6,700",Studio - 3 bd,1.0 - 2.0 ba,546 - 2037 sq ft,"Utilities Included, Fitness Center, Pool, Doorman, Hardwood Floors, Pet Friendly, Dishwasher, Elevator, In Unit Washer & Dryer, Air Conditioning"
The Hudson,"750 N Hudson Ave, Chicago IL 60654",41.89623,-87.64037,"$2,407 - $13,660",1 - 3 bd,1 - 2.5 ba,657 - 1951 sq ft,"Pool, Fitness Center, Furnished Units Available, Elevator, Doorman, Concierge, Controlled Access, Recycling, In Unit Washer & Dryer, Air Conditioning, Dishwasher, High Speed Internet Access, Hardwood Floors, Walk-In Closets, Granite Countertops, Microwave"
The Mabel Exchange Apartments,"5920 N Ridge Ave, Chicago IL 60660",41.9891,-87.66948,"$1,300 - $1,750",Studio - 1 bd,1 ba,500 - 775 sq ft,"In Unit Washer & Dryer, Dishwasher, Microwave, Refrigerator"
Wave Lakeview,"420 W Belmont Ave, Chicago IL 60657",41.94043,-87.64044,"$1,600 - $3,350",Studio - 2 bd,1.0 - 1.5 ba,488 - 1145 sq ft,"Recycling, High Speed Internet Access, Gated, Island Kitchen, Parking Available, Fitness Center, Pool, Roof Terrace, Grill, Hardwood Floors, Walk-In Closets, Granite Countertops, Pet Friendly, Dishwasher, Air Conditioning, Elevator, In Unit Washer & Dryer, Controlled Access"
3450 North Lake Shore Drive,"3450 N Lake Shore Dr, Chicago IL 60657",41.94524,-87.64209,"$1,512 - $3,430",Studio - 2 bd,1 - 2 ba,540 - 1344 sq ft,"Pool, Fitness Center, Laundry Facilities, Elevator, Clubhouse, Roof Terrace, Controlled Access, Recycling, Air Conditioning, Dishwasher, High Speed Internet Access, Walk-In Closets, Granite Countertops, Microwave, Refrigerator, Wi-Fi"
The Edison Apartments,"5200 N Sheridan Rd, Chicago IL 60640",41.97675,-87.65542,"$1,075 - $1,535",Studio - 1 bd,1 ba,300 - 675 sq ft,"Fitness Center, Laundry Facilities, Elevator, Doorman, Air Conditioning, Dishwasher, High Speed Internet Access, Hardwood Floors, Walk-In Closets, Granite Countertops, Microwave, Refrigerator"
The Uptown Regency - 5050 N Sheridan Rd,"5050 N Sheridan Rd, Chicago IL 60640",41.97475,-87.65547,"$1,385 - $2,232",1 bd,1 ba,409 - 628 sq ft,"Fitness Center, Laundry Facilities, Elevator, Doorman, Air Conditioning, Dishwasher, High Speed Internet Access, Hardwood Floors"
west77,"77 W Huron St, Chicago IL 60654",41.89466,-87.63079,"$1,790 - $4,720",Studio - 2 bd,1.0 - 2.0 ba,536 - 1312 sq ft,"Business Center, Air Conditioning, Recycling, High Speed Internet Access, Parking Available, Fitness Center, Pool, Doorman, Pet Friendly, Dishwasher, Concierge, Elevator, In Unit Washer & Dryer, Laundry Facilities"
The Patricians,"401-411 W Fullerton Pky, Chicago IL 60614",41.92535,-87.63967,"$1,395 - $2,020",Studio - 3 bd,1 - 2 ba,373 - 1185 sq ft,"Fitness Center, Laundry Facilities, Roof Terrace, Grill, Air Conditioning, Dishwasher, High Speed Internet Access, Hardwood Floors"
AMLI 900,"900 S Clark St, Chicago IL 60605",41.87024,-87.63108,"$1,575 - $4,424",Studio - 3 bd,1 - 2 ba,497 - 1385 sq ft,"Fitness Center, Furnished Units Available, Elevator, Doorman, Concierge, Clubhouse, Roof Terrace, Controlled Access, In Unit Washer & Dryer, Air Conditioning, Dishwasher, High Speed Internet Access, Walk-In Closets, Island Kitchen, Granite Countertops, Microwave"
Vivian Apartments,"6807 N Sheridan Rd, Chicago IL 60626",42.00591,-87.66056,"$1,425 - $1,875",Studio - 1 bd,1 ba,465 - 630 sq ft,"Fitness Center, Laundry Facilities, Elevator, Clubhouse, Air Conditioning, Dishwasher, High Speed Internet Access, Walk-In Closets, Granite Countertops, Microwave, Refrigerator, Tub/Shower"
The Bryn,"5600 N Sheridan Rd, Chicago IL 60660",41.98396,-87.65568,"$1,487 - $4,422",Studio - 3 bd,1 - 2 ba,350 - 1250 sq ft,"Fitness Center, Laundry Facilities, Elevator, Grill, In Unit Washer & Dryer, Air Conditioning, Dishwasher, High Speed Internet Access, Hardwood Floors, Walk-In Closets, Microwave, Refrigerator"
Left Bank,"300 N Canal St, Chicago IL 60606",41.88721,-87.64035,"$1,862 - $8,915",Studio - 3 bd,1 - 3 ba,442 - 1738 sq ft,"Fitness Center, Elevator, Doorman, Concierge, Clubhouse, Recycling, Business Center, Pet Care, In Unit Washer & Dryer, Air Conditioning, Dishwasher, High Speed Internet Access, Hardwood Floors, Walk-In Closets, Granite Countertops, Microwave"
Sheridan-Gunnison Apartments,"4827 N Sheridan Rd, Chicago IL 60640",41.96985,-87.65437,Call for Rent,Studio - 3 bd,1 ba,528 - 1078 sq ft,"Laundry Facilities, Elevator, Controlled Access, Recycling, Air Conditioning, Dishwasher, High Speed Internet Access, Walk-In Closets"
ELEVEN THIRTY,"1130 S Michigan Ave, Chicago IL 60605",41.86855,-87.6246,"$1,677 - $8,871",Studio - 2 bd,1 - 2 ba,430 - 1150 sq ft,"Pool, Fitness Center, Laundry Facilities, Elevator, In Unit Washer & Dryer, Air Conditioning, Dishwasher, High Speed Internet Access"
Park Heights by the Lake Apartments,"2231 E 67th St, Chicago IL 60649",41.77321,-87.57058,"$1,508 - $4,607",Studio - 2 bd,1 - 2 ba,428 - 1322 sq ft,"Fitness Center, Doorman, Recycling, Gated, In Unit Washer & Dryer, High Speed Internet Access, Fireplace, Patio"
The Draper,"5050 N Broadway St, Chicago IL 60640",41.97405,-87.66027,"$2,690 - $3,260",1 - 2 bd,1.5 - 2 ba,941 - 1283 sq ft,"Pool, Fitness Center, Laundry Facilities, Elevator, Doorman, Concierge, Clubhouse, Roof Terrace, In Unit Washer & Dryer, Air Conditioning, Dishwasher, Loft Layout, High Speed Internet Access, Hardwood Floors, Walk-In Closets, Microwave"
NEXT Apartments,"347 W Chestnut St, Chicago IL 60610",41.89795,-87.63773,"$1,613 - $6,590",Studio - 3 bd,1 - 3 ba,426 - 1727 sq ft,"Pool, Fitness Center, Concierge, Clubhouse, Controlled Access, Recycling, Business Center, Grill, In Unit Washer & Dryer, Air Conditioning, Dishwasher, High Speed Internet Access, Hardwood Floors, Walk-In Closets, Island Kitchen, Microwave"
Linkt Apartments,"830 N Milwaukee Ave, Chicago IL 60642",41.89681,-87.65673,"$1,475 - $2,987",Studio - 3 bd,1 - 2 ba,463 - 1221 sq ft,"Fitness Center, Elevator, Controlled Access, Recycling, In Unit Washer & Dryer, Air Conditioning, Dishwasher, High Speed Internet Access, Hardwood Floors, Walk-In Closets, Island Kitchen, Microwave"
Somerset Place Apartments,"5009 N Sheridan Rd, Chicago IL 60640",41.97383,-87.65453,"$1,000 - $3,236",Studio - 2 bd,1 - 2 ba,462 - 1055 sq ft,"Fitness Center, Laundry Facilities, Elevator, Doorman, Concierge, Clubhouse, Roof Terrace, Controlled Access, Air Conditioning, Dishwasher, High Speed Internet Access, Hardwood Floors, Walk-In Closets, Granite Countertops, Microwave, Refrigerator"
180 North Jefferson,"180 N Jefferson St, Chicago IL 60661",41.88547,-87.643,"$1,807 - $4,498",Studio - 3 bd,1.0 - 3.0 ba,580 - 1774 sq ft,"Business Center, Air Conditioning, Recycling, Community-Wide WiFi, High Speed Internet Access, Parking Available, Clubhouse, Fitness Center, Walk-In Closets, Granite Countertops, Hardwood Floors, Pet Friendly, Microwave, Dishwasher, Concierge, Elevator, In Unit Washer & Dryer, Controlled Access"
Gramercy Row Apartments,"660 N Dearborn St, Chicago IL 60654",41.8942,-87.63004,"$1,309 - $2,518",Studio - 2 bd,1 ba,235 - 775 sq ft,"Fitness Center, Laundry Facilities, Elevator, Controlled Access, Walk-In Closets, Refrigerator, Tub/Shower, Ceiling Fans"
777 South State,"2 E 8th St, Chicago IL 60605",41.87222,-87.62722,"$1,595 - $6,975",Studio - 2 bd,1.0 - 2.0 ba,480 - 2095 sq ft,"Parking Available, Fitness Center, Pool, Doorman, Pet Friendly, Air Conditioning, Laundry Facilities"
The District @ Sheridan - 5536 N Sheridan Rd,"5536 N Sheridan Rd, Chicago IL 60640",41.983,-87.65565,"$1,179 - $2,565",Studio - 2 bd,1 - 1.5 ba,375 - 900 sq ft,"Fitness Center, Elevator, Controlled Access, Gated, In Unit Washer & Dryer, Air Conditioning, Dishwasher, High Speed Internet Access"
The Belmont by Reside,"3170 N Sheridan Rd, Chicago IL 60657",41.93992,-87.64013,"$1,218 - $7,751",Studio - 3 bd,1 - 2 ba,309 - 2333 sq ft,"Fitness Center, Laundry Facilities, Concierge, Recycling, Air Conditioning, Dishwasher, High Speed Internet Access, Hardwood Floors"
Ravenswood Terrace,"1801 W Argyle St, Chicago IL 60640",41.97212,-87.675,"$1,721 - $4,326",Studio - 3 bd,1 - 2 ba,538 - 1378 sq ft,"Fitness Center, Clubhouse, Roof Terrace, Controlled Access, In Unit Washer & Dryer, Air Conditioning, Dishwasher, Hardwood Floors"
1819 Lofts,"1819 W Division St, Chicago IL 60622",41.90303,-87.67318,"$1,905 - $3,215",Studio - 2 bd,1 - 2 ba,524 - 1227 sq ft,"Fitness Center, Laundry Facilities, Elevator, Roof Terrace, Controlled Access, Recycling, Grill, Gated, In Unit Washer & Dryer, Air Conditioning, Dishwasher, Loft Layout, High Speed Internet Access, Hardwood Floors, Walk-In Closets, Island Kitchen"
Lake Street Lofts,"910 W Lake St, Chicago IL 60607",41.88587,-87.65013,"$1,895 - $2,675",1 - 2 bd,1 ba,788 - 1019 sq ft,"Laundry Facilities, Elevator, Controlled Access, Recycling, Air Conditioning, Dishwasher, Loft Layout, High Speed Internet Access, Hardwood Floors, Walk-In Closets, Granite Countertops, Microwave"
215 West Apartments,"215 W Washington St, Chicago IL 60606",41.88293,-87.63449,"$1,794 - $3,498",Studio - 3 bd,1 - 3 ba,517 - 1799 sq ft,"Pool, Furnished Units Available, Doorman, Concierge, Roof Terrace, Controlled Access, Recycling, Business Center, In Unit Washer & Dryer, Air Conditioning, Dishwasher, High Speed Internet Access, Hardwood Floors, Walk-In Closets, Granite Countertops, Microwave"
Winthrop Terrace,"5734 N Winthrop Ave, Chicago IL 60660",41.9866,-87.65845,"$975 - $1,175",Studio bd,1 ba,201 - 215 sq ft,"Laundry Facilities, Furnished Units Available, Elevator, Controlled Access, Air Conditioning, High Speed Internet Access, Hardwood Floors, Walk-In Closets, Microwave, Refrigerator, Wi-Fi, Tub/Shower"
Park Dearborn,"1260 N Dearborn St, Chicago IL 60610",41.90568,-87.63043,"$1,150 - $1,750",Studio - 1 bd,1 ba,445 - 654 sq ft,"Fitness Center, Laundry Facilities, Elevator, Controlled Access, Air Conditioning, Dishwasher, Hardwood Floors, Walk-In Closets"
Buena Terrace - 4242 N Sheridan Rd,"4242 N Sheridan Rd, Chicago IL 60613",41.95964,-87.65554,"$1,167 - $2,268",Studio - 1 bd,1 ba,380 - 590 sq ft,"Fitness Center, Laundry Facilities, Elevator, Controlled Access, Air Conditioning, Dishwasher, High Speed Internet Access, Hardwood Floors, Walk-In Closets, Granite Countertops, Microwave, Refrigerator"
1111 N. Dearborn,"1111 N Dearborn Ave, Chicago IL 60610",41.90211,-87.62959,"$1,660 - $3,995",Studio - 3 bd,1 - 2 ba,525 - 1250 sq ft,"Pool, Fitness Center, Laundry Facilities, Elevator, Doorman, Controlled Access, Recycling, Business Center, Air Conditioning, Dishwasher, High Speed Internet Access, Walk-In Closets, Microwave, Refrigerator, Wi-Fi, Tub/Shower"
5550 S Dorchester,"5550 S DORCHESTER Ave, CHICAGO IL 60637",41.79357,-87.59215,"$1,264 - $4,049",Studio - 2 bd,1 ba,421 - 1173 sq ft,"Fitness Center, Laundry Facilities, Package Service, Maintenance on site, High Speed Internet Access, Granite Countertops, Microwave, Refrigerator"
Belmont Tower Apartments,"510 W Belmont Ave, Chicago IL 60657",41.9403,-87.64274,"$1,600 - $2,700",1 - 3 bd,1 ba,650 - 1150 sq ft,"Fitness Center, Laundry Facilities, Elevator, Doorman, Air Conditioning, Dishwasher, High Speed Internet Access, Hardwood Floors, Walk-In Closets, Granite Countertops, Microwave, Refrigerator"
Hollywood Beach,"5747 N Winthrop Ave, Chicago IL 60660",41.9868,-87.65775,"$995 - $1,290",Studio - 1 bd,1 ba,375 - 600 sq ft,"Laundry Facilities, Elevator, Roof Terrace, Controlled Access, Recycling, Gated, 24 Hour Availability, Trash Pickup - Curbside, Air Conditioning, Loft Layout, Hardwood Floors, Walk-In Closets, Yard, Refrigerator, Tub/Shower, Freezer"
Marina City,"300 N State St, Chicago IL 60654",41.88797,-87.62931,"$1,525 - $2,450",Studio - 1 bd,1 ba,500 - 725 sq ft,"Fitness Center, Laundry Facilities, Furnished Units Available, Doorman, Air Conditioning, High Speed Internet Access, Hardwood Floors, Walk-In Closets"
The Windale,"6019 N Winthrop Ave, Chicago IL 60660",41.99144,-87.65781,"$1,070",Studio bd,1 ba,266 - 370 sq ft,"Laundry Facilities, Elevator, Bike Storage, Lounge, Air Conditioning, Wi-Fi, Security System, Intercom"
Axis Apartments and Lofts,"441 E Erie St, Chicago IL 60611",41.89384,-87.61621,"$1,520 - $3,700",Studio - 3 bd,1.0 - 2.0 ba,471 - 2030 sq ft,"High Speed Internet Access, Controlled Access, Parking Available, Elevator, Clubhouse, Fitness Center, Pool, Walk-In Closets, Doorman, Loft Layout, Hardwood Floors, Granite Countertops, Pet Friendly, Dishwasher, Air Conditioning, Furnished Units Available, In Unit Washer & Dryer, Laundry Facilities"
Winthrop Manor,"5727-5729 N Winthrop Ave, Chicago IL 60660",41.98633,-87.6577,"$975 - $1,325",Studio - 1 bd,1 ba,275 - 550 sq ft,"Laundry Facilities, Elevator, Controlled Access, Recycling, High Speed Internet Access, Hardwood Floors, Walk-In Closets, Refrigerator, Wi-Fi, Tub/Shower, Freezer, Tile Floors"
The Regal Apartments,"651 S Wells St, Chicago IL 60607",41.87354,-87.63329,"$1,857 - $6,948",1 - 3 bd,1 - 2.5 ba,644 - 1320 sq ft,"Fitness Center, Elevator, Business Center, Property Manager on Site, In Unit Washer & Dryer, Dishwasher, High Speed Internet Access, Hardwood Floors"
The Covington - 4600 N Clarendon Ave,"4600 N Clarendon Ave, Chicago IL 60640",41.96567,-87.6505,"$1,150 - $1,992",Studio - 2 bd,1.0,375 - 1150 sq ft,"Parking Available, Fitness Center, Walk-In Closets, Granite Countertops, Doorman, Loft Layout, Hardwood Floors, Refrigerator, Microwave, Dishwasher, Air Conditioning, Pet Friendly, Elevator, Laundry Facilities"
4241 Kenmore Apartments,"4241 N Kenmore Ave, Chicago IL 60613",41.9597,-87.65593,$900 - $950,Studio bd,1 ba,375 sq ft,"Laundry Facilities, Controlled Access, Key Fob Entry, Package Service, Dishwasher, High Speed Internet Access, Hardwood Floors, Island Kitchen, Yard, Microwave, Refrigerator, Tile Floors"
X Chicago - Historical Access,"710 W 14th St, Chicago IL 60607",41.86384,-87.64527,"$1,079 - $3,035",1 - 2 bd,1.0 - 2.0 ba,319 - 1175 sq ft,"Washer/Dryer Hookup, Parking Available, Elevator, Utilities Included, Fitness Center, Walk-In Closets, Roof Terrace, Hardwood Floors, Refrigerator, Pet Friendly, Dishwasher, Wi-Fi, Furnished Units Available, In Unit Washer & Dryer, Air Conditioning"
1350 North Lake Shore Drive,"1350 N Lake Shore Dr, Chicago IL 60610",41.90714,-87.62642,"$1,449 - $10,629",Studio - 2 bd,1 - 2 ba,467 - 1195 sq ft,"Fitness Center, Laundry Facilities, Furnished Units Available, Elevator, Air Conditioning, Dishwasher, High Speed Internet Access, Hardwood Floors, Walk-In Closets, Microwave, Wi-Fi, Tile Floors"
Tailor Lofts,"315 S Peoria St, Chicago IL 60607",41.87765,-87.64928,"$1,044 - $2,050",Studio - 4 bd,1 - 4 ba,359 - 1577 sq ft,"Fitness Center, Laundry Facilities, Furnished Units Available, Elevator, Doorman, Clubhouse, Recycling, Conference Room, Dishwasher, High Speed Internet Access, Microwave, Refrigerator, Wi-Fi, Tub/Shower, Disposal, Freezer"
Reside at Belmont Harbor,"426 W Belmont Ave, Chicago IL 60657",41.94045,-87.64071,"$1,010 - $4,054",Studio - 1 bd,1 ba,267 - 671 sq ft,"Fitness Center, Laundry Facilities, Elevator, Concierge, Air Conditioning, Dishwasher, High Speed Internet Access, Hardwood Floors, Walk-In Closets, Granite Countertops, Microwave, Tub/Shower"
534 W. Wellington Ave,"534 W Wellington Ave, Chicago IL 60657",41.93678,-87.64322,"$950 - $1,350",Studio - 1 bd,1 ba,544 - 601 sq ft,"Air Conditioning, Hardwood Floors, Refrigerator, Ceiling Fans"
1323 W Morse Ave,"1323 W Morse Ave, Chicago IL 60626",42.0079,-87.66461,"$965 - $4,054",Studio - 2 bd,1 ba,505 - 978 sq ft,"Fitness Center, Elevator, Grill, Bike Storage, In Unit Washer & Dryer, Air Conditioning, Dishwasher, Hardwood Floors, Island Kitchen, Granite Countertops, Microwave, Refrigerator"
Dearborn Plaza,"1030 N Dearborn St, Chicago IL 60610",41.90154,-87.63033,"$975 - $1,225",Studio bd,1 ba,250 - 300 sq ft,"Fitness Center, Laundry Facilities, Elevator, Controlled Access, Air Conditioning, High Speed Internet Access, Hardwood Floors, Microwave"
Dearborn North,"1117 N Dearborn St, Chicago IL 60610",41.90246,-87.62955,"$1,095 - $1,750",Studio - 1 bd,1 ba,325 - 795 sq ft,"Fitness Center, Laundry Facilities, Furnished Units Available, Elevator, Controlled Access, Recycling, Business Center, Community-Wide WiFi, Air Conditioning, Dishwasher, High Speed Internet Access, Hardwood Floors, Walk-In Closets, Granite Countertops, Microwave, Refrigerator"
Oakdale Terrace - 525 W Oakdale Ave,"525 W Oakdale Ave, Chicago IL 60657",41.93522,-87.64294,"$1,277 - $2,748",Studio - 2 bd,1 ba,207 - 995 sq ft,"Laundry Facilities, Elevator, Recycling, Gated, In Unit Washer & Dryer, Air Conditioning, Dishwasher, High Speed Internet Access"
Student | Infinite Chicago,"28 E Jackson Blvd, Chicago IL 60604",41.8784,-87.62659,"$869 - $2,339",Studio - 4 bd,1 - 3 ba,500 - 1300 sq ft,"Fitness Center, Furnished Units Available, Elevator, Roof Terrace, Controlled Access, Recycling, Business Center, Community-Wide WiFi, In Unit Washer & Dryer, Dishwasher, High Speed Internet Access, Microwave, Refrigerator, Disposal, Freezer, Patio"
5710 N Winthrop,"5710 N Winthrop Ave, Chicago IL 60660",41.9866,-87.65851,"$871 - $1,100",Studio - 1 bd,1 ba,475 - 700 sq ft,"In Unit Washer & Dryer, Air Conditioning, Hardwood Floors, Stainless Steel Appliances"
Lake Meadows,"3233 S King Dr, Chicago IL 60616",41.83524,-87.61639,"$1,016 - $4,712",Studio - 3 bd,1 - 1.5 ba,425 - 1228 sq ft,"Fitness Center, Laundry Facilities, Clubhouse, Recycling, Smoke Free, Garden, Intercom, Cable Ready"
Affinity on North Ave.,"551 W North Ave, Chicago IL 60610",41.91075,-87.64299,"$911 - $3,500",Studio - 2 bd,1 - 2 ba,465 - 1494 sq ft,"Fitness Center, Laundry Facilities, Elevator, Business Center, Air Conditioning, Dishwasher, Island Kitchen, Granite Countertops, Microwave, Refrigerator, Tub/Shower, Disposal"
7945-7955 S. Drexel Ave.,"7945-7955 S Drexel Ave, Chicago IL 60619",41.74986,-87.6022,"$625 - $1,100",Studio - 2 bd,1 ba,374 - 925 sq ft,"Hardwood Floors, Refrigerator, Heating, Oven"
City Gardens,"312 S Maplewood Ct, Chicago IL 60612",41.8772,-87.69019,"$901 - $1,419",1 - 3 bd,1 - 2 ba,863 - 1372 sq ft,"Controlled Access, Recycling, Business Center, Grill, In Unit Washer & Dryer, Air Conditioning, Dishwasher, Washer/Dryer Hookup"
Oak Park City Apartments,"675 Lake St, Oak Park IL 60301",41.88797,-87.79202,"$1,892 - $6,911",Studio - 2 bd,1 - 2 ba,605 - 1300 sq ft,"Fitness Center, Laundry Facilities, Elevator, Controlled Access, In Unit Washer & Dryer, Air Conditioning, Dishwasher, High Speed Internet Access"
415 Premier Apartments,"415 Howard St, Evanston IL 60202",42.01963,-87.6751,"$1,531 - $2,838",1 - 2 bd,1 - 2 ba,657 - 1280 sq ft,"Fitness Center, Elevator, Doorman, Concierge, Clubhouse, Controlled Access, Recycling, Business Center, In Unit Washer & Dryer, Air Conditioning, Dishwasher, High Speed Internet Access, Hardwood Floors, Walk-In Closets, Island Kitchen, Granite Countertops"
AMLI Evanston,"737 Chicago Ave, Evanston IL 60202",42.03134,-87.67849,"$1,790 - $3,557",Studio - 3 bd,1 - 2 ba,500 - 1590 sq ft,"Fitness Center, Laundry Facilities, Elevator, Clubhouse, Roof Terrace, Controlled Access, Business Center, Grill, In Unit Washer & Dryer, Air Conditioning, Dishwasher, Loft Layout, High Speed Internet Access, Hardwood Floors, Walk-In Closets, Island Kitchen"
Linden Towers *Washer & Dryer in Apartment*,"24 S Addison St, Bensenville IL 60106",41.9565,-87.94302,"$1,260 - $1,530",1 - 2 bd,1 - 2 ba,725 - 990 sq ft,"Elevator, Playground, Clubhouse, Grill, In Unit Washer & Dryer, Air Conditioning, Dishwasher, High Speed Internet Access, Walk-In Closets, Microwave, Refrigerator, Tub/Shower"
Oak Park Residence Corporation,"41 South Blvd, Oak Park IL 60302",41.88678,-87.77704,"$955 - $1,695",Studio - 2 bd,1 ba,410 - 1317 sq ft,"Laundry Facilities, Grill, 24 Hour Availability, Storage Space, Air Conditioning, Dishwasher, High Speed Internet Access, Hardwood Floors, Walk-In Closets, Granite Countertops, Yard, Microwave"
Ivy Gayles,"5316 S Dorchester Ave, Chicago IL 60615",41.79877,-87.59254,"$940 - $1,560",Studio - 2 bd,1 - 2 ba,361 - 867 sq ft,"Laundry Facilities, Furnished Units Available, Elevator, Recycling, Dishwasher, High Speed Internet Access, Hardwood Floors, Walk-In Closets"
The Avondale,"4214 W Belmont Ave, Chicago IL 60641",41.93927,-87.73265,"$4,000 - $6,500",3 - 5 bd,3.5 - 4.5 ba,1950 - 4210 sq ft,"Fitness Center, Laundry Facilities, Furnished Units Available, Playground, Roof Terrace, Controlled Access, Recycling, Grill, In Unit Washer & Dryer, Air Conditioning, Dishwasher, High Speed Internet Access, Walk-In Closets, Island Kitchen, Microwave, Refrigerator"
528 Oakdale,"528 W Oakdale Ave, Chicago IL 60657",41.93582,-87.64315,"$1,350 - $2,548",Studio - 2 bd,1 ba,450 - 800 sq ft,"Laundry Facilities, Elevator, Community-Wide WiFi, Walk To Campus, In Unit Washer & Dryer, Air Conditioning, Dishwasher, High Speed Internet Access"
1944 Spaulding Ave,"1944-1950 N Spaulding Ave, Chicago IL 60647",41.91692,-87.71087,"$2,190",4 bd,2 ba,1350 sq ft,"Laundry Facilities, Controlled Access, Recycling, Gated, Dishwasher, Hardwood Floors, Walk-In Closets, Granite Countertops"
1225 Old Town,"1225 N Wells St, Chicago IL 60610",41.90498,-87.63408,"$1,823 - $5,757",Studio - 3 bd,1.0 - 3.0 ba,513 - 1732 sq ft,"Air Conditioning, High Speed Internet Access, Parking Available, Fitness Center, Pool, Walk-In Closets, Pet Friendly, Concierge, In Unit Washer & Dryer, Laundry Facilities"
1328 W 18th St.,"1328 W 18th St, Chicago IL 60608",41.85806,-87.66001,"$2,225",2 bd,2 ba,1000 sq ft,"Laundry Facilities, Controlled Access, Gated, Key Fob Entry, In Unit Washer & Dryer, Air Conditioning, Dishwasher, High Speed Internet Access, Hardwood Floors, Island Kitchen, Granite Countertops, Microwave"
1220 W Jackson Blvd.,"1220 W Jackson Blvd, Chicago IL 60607",41.87812,-87.6585,"$1,550 - $2,895",Studio - 2 bd,1 - 2 ba,403 - 1272 sq ft,"Fitness Center, Elevator, Gated, Bike Storage, In Unit Washer & Dryer, Air Conditioning, Dishwasher, High Speed Internet Access"
4450 Sheridan Park Apartments,"4450 N Sheridan Rd, Chicago IL 60640",41.96334,-87.65521,"$2,000",2 bd,2 ba,1350 sq ft,"Laundry Facilities, Controlled Access, Recycling, Grill, In Unit Washer & Dryer, Air Conditioning, Dishwasher, High Speed Internet Access, Hardwood Floors, Island Kitchen, Yard, Microwave"
330 S Wells,"330 S Wells St, Chicago IL 60606",41.87711,-87.6339,"$1,598 - $1,942",Studio - 1 bd,1 ba,394 - 622 sq ft,"Fitness Center, Laundry Facilities, Furnished Units Available, Elevator, In Unit Washer & Dryer, Air Conditioning, Dishwasher, High Speed Internet Access"
The Sutherland,"4659 S Drexel Blvd, Chicago IL 60653",41.80979,-87.6036,"$1,117 - $2,844",Studio - 2 bd,1.0,357 - 1001 sq ft,"Concierge, High Speed Internet Access, Parking Available, Utilities Included, Fitness Center, Hardwood Floors, Pet Friendly, Dishwasher, Air Conditioning, Elevator, Laundry Facilities"
Old Town Park Tower 1,"1140 N Wells St, Chicago IL 60610",41.90343,-87.63495,"$2,027 - $17,500",Studio - 4 bd,1 - 4 ba,505 - 4375 sq ft,"Pool, Fitness Center, Furnished Units Available, Elevator, In Unit Washer & Dryer, Air Conditioning, Dishwasher, Walk-In Closets"
901 W Agatite Ave,"901 W Agatite Ave, Chicago IL 60640",41.96242,-87.65255,"$1,500",2 bd,1 ba,1000 sq ft,"Laundry Facilities, 24 Hour Availability, Package Service, Maintenance on site, Dishwasher, High Speed Internet Access, Hardwood Floors, Yard, Microwave, Refrigerator, Fireplace, Tile Floors"
Upshore Chapter Apartments,"4555 N Sheridan Rd, Chicago IL 60640",41.96517,-87.65422,"$1,420 - $2,928",Studio - 2 bd,1 - 2 ba,490 - 960 sq ft,"Fitness Center, Elevator, Roof Terrace, Controlled Access, Business Center, Grill, Gated, Community-Wide WiFi, In Unit Washer & Dryer, Air Conditioning, Dishwasher, High Speed Internet Access, Hardwood Floors, Walk-In Closets, Granite Countertops, Microwave"
540 West Roscoe Street,"540 W Roscoe St, Chicago IL 60657",41.94363,-87.6438,"$995 - $1,525",Studio - 1 bd,1 ba,450 - 750 sq ft,"Air Conditioning, High Speed Internet Access, Hardwood Floors, Refrigerator"
The Cloisters,"5801-5811 S Dorchester Ave, Chicago IL 60637",41.78949,-87.59129,Call for Rent,1 - 6 bd,1 - 4 ba,,
1033 W Loyola,"1033 W Loyola Ave, Chicago IL 60626",42.00131,-87.65736,"$1,344",Studio - 3 bd,1 ba,496 - 893 sq ft,"Laundry Facilities, Elevator, Controlled Access, Gated, High Speed Internet Access, Walk-In Closets, Refrigerator, Crown Molding"
468 W Melrose St,"468 W Melrose St, Chicago IL 60657",41.94141,-87.64203,"$975 - $1,950",Studio - 2 bd,1 - 1.5 ba,350 - 1000 sq ft,"Air Conditioning, Dishwasher, High Speed Internet Access, Hardwood Floors"
4756 N Maplewood Ave,"4756 N Maplewood Ave, Chicago IL 60625",41.96832,-87.69277,"$900 - $1,800",Studio - 2 bd,1 ba,350 - 1400 sq ft,"Laundry Facilities, Controlled Access, Key Fob Entry, Property Manager on Site, In Unit Washer & Dryer, Dishwasher, High Speed Internet Access, Hardwood Floors, Island Kitchen, Yard, Microwave, Refrigerator"
Buckingham Apartments,"642-648 W Buckingham Pl, Chicago IL 60657",41.94303,-87.64632,"$1,250 - $1,325",1 bd,1 ba,750 - 850 sq ft,
Polo Tower,"4180 N Marine Dr, Chicago IL 60613",41.95811,-87.64687,"$1,100 - $1,350",1,1.0,700 - 750 sq ft,"Utilities Included, Granite Countertops, Hardwood Floors, Wi-Fi, Air Conditioning"
The Sovereign,"1040 W Granville Ave, Chicago IL 60660",41.99476,-87.65734,"$810 - $1,915",Studio - 3 bd,1.0 - 2.0 ba,272 - 1754 sq ft,"High Speed Internet Access, Controlled Access, Parking Available, Utilities Included, Fitness Center, Pool, Walk-In Closets, Hardwood Floors, Pet Friendly, Elevator, Air Conditioning"
Darlington Apartments,"4700 N Racine Ave, Chicago IL 60640",41.96732,-87.65996,"$785 - $1,420",Studio - 1 bd,1 ba,157 - 401 sq ft,"Laundry Facilities, Furnished Units Available, Controlled Access, Recycling, In Unit Washer & Dryer, Dishwasher, Loft Layout, High Speed Internet Access"
720 Washington,"720 Washington Blvd, Oak Park IL 60302",41.88175,-87.79387,"$1,395 - $1,425",1 bd,1 ba,750 sq ft,"Laundry Facilities, Controlled Access, Maintenance on site, Storage Space, Dishwasher, Hardwood Floors, Granite Countertops, Microwave"
Elevate Saint Andrew,"7000 N Newark Ave, Niles IL 60714",42.00948,-87.80197,"$999 - $1,500",Studio - 1 bd,1 ba,250 - 600 sq ft,"Laundry Facilities, Furnished Units Available, Elevator, Concierge, Air Conditioning, High Speed Internet Access, Hardwood Floors, Walk-In Closets, Microwave, Wi-Fi, Tub/Shower, Ceiling Fans"
Mont Clare,"7171 W Gunnison St, Harwood Heights IL 60706",41.96789,-87.80648,"$948 - $1,885",Studio - 1 bd,1 ba,348 - 775 sq ft,"Pool, Fitness Center, Laundry Facilities, Elevator, Air Conditioning, Dishwasher, High Speed Internet Access, Refrigerator"
Orchard Estates Apartments,"4622 W 122nd St, Alsip IL 60803",41.67179,-87.73496,"$1,050 - $1,350",1 - 2 bd,1 ba,750 - 950 sq ft,"Laundry Facilities, Controlled Access, 24 Hour Availability, Property Manager on Site, Air Conditioning, Walk-In Closets, Refrigerator, Tub/Shower"
Woodland Courts,"3621 W 119th St, Alsip IL 60803",41.67563,-87.71033,"$1,070 - $1,350",1 - 2 bd,1 ba,700 - 900 sq ft,"Pool, Laundry Facilities, Playground, Controlled Access, Air Conditioning, High Speed Internet Access, Walk-In Closets, Refrigerator, Freezer, Patio, Tile Floors, Ceiling Fans"
Ivy at Piccadilly,"5107 S Blackstone Ave, Chicago IL 60615",41.80223,-87.59005,"$1,390 - $2,280",Studio - 2 bd,1 - 2 ba,530 - 1528 sq ft,"Laundry Facilities, Furnished Units Available, Elevator, Controlled Access, Dishwasher, High Speed Internet Access, Microwave, Refrigerator"
Sienna,"423 E Ohio St, Chicago IL 60611",41.8924,-87.6172,"$2,750 - $4,774",1 - 2 bd,1 - 2 ba,795 - 1420 sq ft,"Fitness Center, Elevator, Roof Terrace, Controlled Access, In Unit Washer & Dryer, Air Conditioning, Dishwasher, Hardwood Floors, Walk-In Closets, Microwave, Refrigerator, Wi-Fi"
Deming Place,"531 W Deming Pl, Chicago IL 60614",41.92774,-87.6433,"$1,155",Studio bd,1 ba,450 sq ft,"Laundry Facilities, Elevator, Controlled Access, Bike Storage, Air Conditioning, Dishwasher, Hardwood Floors, Refrigerator"
Paulina-Waveland,"1708-1710 W Waveland Ave, Chicago IL 60613",41.9489,-87.67166,"$1,425",1 bd,1 ba,,
6006 N Kenmore Ave,"6006 N Kenmore Ave, Chicago IL 60660",41.99118,-87.65721,"$1,050 - $1,225",Studio - 1 bd,1 ba,490 - 712 sq ft,"Laundry Facilities, Elevator, Individual Locking Bedrooms, Online Services, Air Conditioning, Hardwood Floors, Refrigerator, Tub/Shower"
The Erikson,"3728 N Lake Shore Dr, Chicago IL 60613",41.95116,-87.64528,"$2,400",1 bd,1.5 ba,803 sq ft,"Elevator, Roof Terrace, Grill, Pet Play Area, In Unit Washer & Dryer, Air Conditioning, Dishwasher, High Speed Internet Access"
The Milwood,"1422-1426 N Milwaukee Ave, Chicago IL 60622",41.90775,-87.6737,"$2,000",Studio - 1 bd,1 ba,495 - 650 sq ft,"Elevator, Bike Storage, Lounge, Maintenance on site, Air Conditioning, High Speed Internet Access, Microwave, Wi-Fi"
2335 - 45 N. Geneva Terrace,"2335-2345 N Geneva Ter, Chicago IL 60614",41.92494,-87.64328,"$1,045 - $1,495",Studio - 1 bd,1 ba,380 - 600 sq ft,"Pool, Laundry Facilities, Recycling, Bike Storage, Dishwasher, High Speed Internet Access, Hardwood Floors, Walk-In Closets"
4610 N Hermitage Ave,"4610 N Hermitage Ave, Chicago IL 60640",41.96564,-87.67298,Call for Rent,Studio bd,,,
Wrightwood - 512 W Wrightwood Ave,"512 W Wrightwood Ave, Chicago IL 60614",41.93072,-87.64218,"$2,294 - $4,358",1 - 2 bd,1 - 2 ba,545 - 1015 sq ft,"In Unit Washer & Dryer, Air Conditioning, Dishwasher, High Speed Internet Access"
1501 W Nelson St,"1501 W Nelson St, Chicago IL 60657",41.93677,-87.66629,"$2,250 - $2,300",2 bd,1 ba,,
Trailhead,"1744 N Western Ave, Chicago IL 60647",41.9134,-87.68775,"$2,475 - $3,777",1 - 2 bd,1 ba,708 - 1666 sq ft,"Fitness Center, Elevator, Clubhouse, Business Center, In Unit Washer & Dryer, Air Conditioning, Dishwasher, High Speed Internet Access, Hardwood Floors, Walk-In Closets, Island Kitchen, Granite Countertops"
TRIO Apartments,"670 W Wayman St, Chicago IL 60661",41.88763,-87.64505,"$2,393 - $6,534",1 - 3 bd,1 - 3 ba,704 - 2868 sq ft,"Fitness Center, Elevator, Concierge, Controlled Access, Recycling, Business Center, Pet Care, Key Fob Entry, In Unit Washer & Dryer, Air Conditioning, Dishwasher, High Speed Internet Access, Hardwood Floors, Walk-In Closets, Granite Countertops, Microwave"
Eleven23 Randolph,"1123 W Randolph St, Chicago IL 60607",41.88395,-87.65539,"$3,194",1 - 2 bd,1 - 2 ba,449 - 962 sq ft,"Elevator, Roof Terrace, Gated, Lounge, In Unit Washer & Dryer, Air Conditioning, Dishwasher, Microwave"
2228 Kenmore,"2228 N Kenmore Ave, Chicago IL 60614",41.92258,-87.65507,"$3,101 - $3,261",2 bd,2 ba,1000 sq ft,"Laundry Facilities, Gated, Package Service, Property Manager on Site, Air Conditioning, Dishwasher, High Speed Internet Access, Hardwood Floors"
734-744 W Aldine,"734-744 W Aldine Ave, Chicago IL 60657",41.94208,-87.64849,"$1,200",Studio bd,1 ba,625 sq ft,"Dishwasher, High Speed Internet Access, Hardwood Floors, Stainless Steel Appliances"
553 W Oakdale Ave,"553 W Oakdale Ave, Chicago IL 60657",41.93523,-87.64402,"$1,075 - $1,125",Studio bd,1 ba,425 - 500 sq ft,"Dishwasher, Hardwood Floors, Walk-In Closets, Refrigerator"
6211 N Kenmore,"6211 N Kenmore Ave, Chicago IL 60660",41.99481,-87.6568,"$1,027",Studio bd,1 ba,475 sq ft,
Astor House,"1340 N Astor St, Chicago IL 60610",41.90697,-87.62801,Call for Rent,1 - 2 bd,1 - 2 ba,576 - 1154 sq ft,"Pool, Fitness Center, Laundry Facilities, Elevator, In Unit Washer & Dryer, Air Conditioning, Dishwasher, High Speed Internet Access"
1331-41 W. Addison,"1331 W Addison St, Chicago IL 60613",41.94667,-87.66313,"$1,700 - $2,100",1 bd,1 ba,790 - 925 sq ft,"Air Conditioning, Dishwasher, High Speed Internet Access, Hardwood Floors"
500 W. Belmont,"500 W Belmont Ave, Chicago IL 60657",41.94043,-87.64198,"$1,299 - $1,670",Studio - 1 bd,1.0,400 - 670 sq ft,"Recycling, High Speed Internet Access, Controlled Access, Laundry Facilities, Parking Available, Hardwood Floors, Pet Friendly, Dishwasher, Elevator, Air Conditioning"
5752 N Winthrop Ave,"5752-5758 N Winthrop Ave, Chicago IL 60660",41.98704,-87.65849,"$1,440",1 bd,1 ba,800 sq ft,"Laundry Facilities, Recycling, 24 Hour Availability, Property Manager on Site, Hardwood Floors, Refrigerator, Tub/Shower, Freezer, Patio, Office, Ceiling Fans, Smoke Free"
The Chatelaine,"215 E Chestnut St, Chicago IL 60611",41.89819,-87.62123,"$2,110",1 - 4 bd,1.0 - 4.0 ba,725 - 2400 sq ft,"Utilities Included, Fitness Center, Walk-In Closets, Roof Terrace, Hardwood Floors, Granite Countertops, Refrigerator, Pet Friendly, Microwave, Dishwasher, Air Conditioning, Elevator, In Unit Washer & Dryer, Laundry Facilities"
858 N Franklin,"858 N Franklin St, Chicago IL 60610",41.89838,-87.63604,"$2,350 - $6,500",1 - 3 bd,1 - 2.5 ba,792 - 2200 sq ft,"In Unit Washer & Dryer, Air Conditioning, Dishwasher, High Speed Internet Access, Hardwood Floors, Walk-In Closets, Island Kitchen, Granite Countertops"
Kenmore Vista Apartments,"5330-5338 N Kenmore Ave, Chicago IL 60640",41.97924,-87.65689,"$1,225",1 bd,1 ba,,
Halsted Flats,"3740 N Halsted St, Chicago IL 60613",41.95048,-87.65006,"$1,875 - $7,809",Studio - 3 bd,1 - 3 ba,520 - 1730 sq ft,"Pool, Fitness Center, Laundry Facilities, Concierge, Clubhouse, Recycling, Business Center, Community-Wide WiFi, In Unit Washer & Dryer, Air Conditioning, Dishwasher, Washer/Dryer Hookup, High Speed Internet Access, Hardwood Floors, Walk-In Closets, Microwave"
10 E. Ontario St.,"10 E Ontario St, Chicago IL 60611",41.89363,-87.62775,"$2,025 - $3,200",1 - 2 bd,1 - 2 ba,850 - 1100 sq ft,"Pool, Fitness Center, Laundry Facilities, Elevator, Doorman, Concierge, Clubhouse, Controlled Access, Air Conditioning, Dishwasher, High Speed Internet Access, Hardwood Floors, Walk-In Closets, Island Kitchen, Granite Countertops, Microwave"
596 W Hawthorne,"596 W Hawthorne Pl, Chicago IL 60657",41.94434,-87.64525,"$1,073 - $1,212",Studio,1.0,210 - 330 sq ft,"24 Hour Availability, Recycling, High Speed Internet Access, Laundry Facilities, Walk-In Closets, Refrigerator, Hardwood Floors, Pet Friendly, Controlled Access"
601 W Deming,"601 W Deming Pl, Chicago IL 60614",41.92767,-87.64435,"$1,775",1 bd,1 ba,520 sq ft,"Laundry Facilities, Elevator, Recycling, Bike Storage, Dishwasher, Hardwood Floors, Granite Countertops, Refrigerator"
Wolf Point West,"343 W Wolf Point Plz, Chicago IL 60654",41.88761,-87.63816,"$2,260 - $7,796",Studio - 3 bd,1 - 2.5 ba,642 - 1829 sq ft,"Pool, Fitness Center, Elevator, Business Center, In Unit Washer & Dryer, Air Conditioning, Dishwasher, High Speed Internet Access"
The Scott Residences,"211 W Scott St, Chicago IL 60610",41.90506,-87.63485,"$2,065 - $3,119",Studio - 3 bd,1 - 2 ba,580 - 1720 sq ft,"Fitness Center, Laundry Facilities, Elevator, Doorman, In Unit Washer & Dryer, Air Conditioning, Dishwasher, High Speed Internet Access, Hardwood Floors, Walk-In Closets, Microwave, Refrigerator"
3000 N Sheridan,"3000 N Sheridan Rd, Chicago IL 60657",41.93681,-87.63995,"$2,820 - $4,295",1 - 4 bd,1 - 3 ba,1250 - 2173 sq ft,"Laundry Facilities, Elevator, Doorman, Package Service, Dishwasher, High Speed Internet Access, Hardwood Floors, Microwave"
640 North Wells,"640 N Wells St, Chicago IL 60654",41.89373,-87.63444,"$2,035 - $6,337",Studio - 3 bd,1 - 2 ba,500 - 1600 sq ft,"Pool, Fitness Center, Clubhouse, Roof Terrace, In Unit Washer & Dryer, Air Conditioning, High Speed Internet Access, Walk-In Closets"
Stewart School Lofts,"4525 N Kenmore Ave, Chicago IL 60640",41.96437,-87.65577,"$1,599 - $3,975",Studio - 3 bd,1 - 3 ba,565 - 1765 sq ft,"Elevator, Controlled Access, Gated, Community-Wide WiFi, In Unit Washer & Dryer, High Speed Internet Access, Hardwood Floors, Walk-In Closets"
544 W. Melrose,"544 W Melrose St, Chicago IL 60657",41.9414,-87.64386,"$1,138 - $1,686",Studio - 1 bd,1.0,300 - 615 sq ft,"Recycling, High Speed Internet Access, Controlled Access, Laundry Facilities, Tile Floors, Parking Available, Walk-In Closets, Refrigerator, Hardwood Floors, Pet Friendly, Tub/Shower, Dishwasher, Elevator, Air Conditioning"
Sheridan Shores,"640 W Sheridan Rd, Chicago IL 60613",41.95323,-87.64636,"$1,140 - $1,775",Studio - 2 bd,1 - 1.5 ba,400 - 850 sq ft,"Air Conditioning, Dishwasher, High Speed Internet Access, Hardwood Floors"
Elm Street Plaza,"1130 N Dearborn St, Chicago IL 60610",41.90295,-87.63035,"$1,574 - $4,136",Studio - 2 bd,1 - 2 ba,507 - 1100 sq ft,"Pool, Fitness Center, Laundry Facilities, Business Center"
The Winnie,"4750 N Winthrop Ave, Chicago IL 60640",41.96861,-87.65808,"$1,510 - $2,080",Studio - 1 bd,1 ba,333 - 649 sq ft,"Elevator, Bike Storage, Lounge, Maintenance on site, In Unit Washer & Dryer, Air Conditioning, Dishwasher, Hardwood Floors"
"1325 N Wells Chicago, IL 60610","1325 N Wells St, Chicago IL 60610",41.90652,-87.63423,"$2,113 - $3,475",1 - 2 bd,1 - 2 ba,621 - 985 sq ft,"Pool, Fitness Center, Community-Wide WiFi, Bike Storage, In Unit Washer & Dryer, Air Conditioning, Dishwasher, Hardwood Floors"
515 W. Barry,"515 W Barry Ave, Chicago IL 60657",41.93741,-87.6427,"$1,245 - $1,770",Studio - 1 bd,1.0,300 - 645 sq ft,"Recycling, High Speed Internet Access, Controlled Access, Laundry Facilities, Tile Floors, Parking Available, Walk-In Closets, Refrigerator, Hardwood Floors, Pet Friendly, Tub/Shower, Dishwasher, Elevator, Air Conditioning"
Alta Grand Central,"221 W Harrison St, Chicago IL 60607",41.87427,-87.63407,"$1,634 - $3,464",Studio - 2 bd,1 - 2 ba,407 - 1241 sq ft,"Pool, Fitness Center, Elevator, Doorman, Concierge, Clubhouse, Controlled Access, Business Center, In Unit Washer & Dryer, Air Conditioning, Dishwasher, High Speed Internet Access, Walk-In Closets, Microwave, Refrigerator, Tub/Shower"
5129 S Harper Ave Apartments,"5129 S Harper Ave, Chicago IL 60615",41.80147,-87.58879,Call for Rent,Studio - 1 bd,1 ba,500 - 650 sq ft,"Laundry Facilities, Elevator, 24 Hour Availability, Property Manager on Site, High Speed Internet Access, Hardwood Floors, Walk-In Closets, Refrigerator"
1879 North Milwaukee,"1879 N Milwaukee Ave, Chicago IL 60647",41.91579,-87.6854,"$2,007 - $4,001",Studio - 2 bd,1 - 2 ba,485 - 1023 sq ft,"Elevator, Controlled Access, Grill, Gated, In Unit Washer & Dryer, Air Conditioning, Dishwasher, High Speed Internet Access, Hardwood Floors, Walk-In Closets, Granite Countertops, Microwave"
Catalpa Vista Apartments,"1022-1024 W Catalpa Ave, Chicago IL 60640",41.98206,-87.65621,$915,Studio bd,1 ba,600 sq ft,"Laundry Facilities, Bike Storage, Package Service, Fenced Lot, Air Conditioning, High Speed Internet Access, Refrigerator, Smoke Free"
2417 N Monticello Ave,"2417 N Monticello Ave, Chicago IL 60647",41.92524,-87.71788,"$1,050 - $1,250",1 bd,1 ba,800 - 950 sq ft,"Hardwood Floors, Tile Floors, Basement, Dining Room"
The Victorian Apartments,"5326 S Cornell Ave, Chicago IL 60615",41.79871,-87.58602,"$1,258 - $2,972",Studio - 1 bd,1 ba,290 - 390 sq ft,"Elevator, Controlled Access, Lounge, Property Manager on Site, Air Conditioning, Walk-In Closets, Tile Floors, Ceiling Fans"
Reside on Stratford,"525 W Stratford Pl, Chicago IL 60657",41.94553,-87.64306,"$1,008 - $3,260",Studio - 1 bd,1 ba,354 - 721 sq ft,"Fitness Center, Laundry Facilities, Concierge, Recycling, Air Conditioning, Dishwasher, High Speed Internet Access, Hardwood Floors"
Lincoln Square Commons - 4759 N Maplewood Ave,"4759 N Maplewood Ave, Chicago IL 60625",41.96829,-87.69243,"$1,523 - $2,109",1 bd,1 ba,548 - 650 sq ft,"Laundry Facilities, Gated, Bike Storage, Package Service, Air Conditioning, High Speed Internet Access, Hardwood Floors, Granite Countertops"
Chestnut Row Homes,"111 W Chestnut St, Chicago IL 60610",41.89777,-87.63166,Call for Rent,4 bd,4.5 ba,4395 - 4786 sq ft,"In Unit Washer & Dryer, Air Conditioning, Dishwasher, Hardwood Floors"
5700 Winthrop,"5700 N Winthrop Ave, Chicago IL 60660",41.98562,-87.65845,"$1,280",1 bd,1 ba,450 sq ft,"Laundry Facilities, Recycling, Package Service, Maintenance on site, High Speed Internet Access, Hardwood Floors, Refrigerator, Tub/Shower"
1700 S Morgan St,"1700 S Morgan St, Chicago IL 60608",41.85895,-87.65128,"$2,200",2 bd,2.5 ba,1400 sq ft,"In Unit Washer & Dryer, Air Conditioning, Dishwasher, High Speed Internet Access, Hardwood Floors, Walk-In Closets, Island Kitchen, Granite Countertops"
Astoria Tower,"8 E 9th St, Chicago IL 60605",41.8708,-87.62706,"$1,781 - $3,065",Studio - 2 bd,1.0 - 3.0 ba,546 - 1878 sq ft,"High Speed Internet Access, Parking Available, Fitness Center, Pool, Doorman, Pet Friendly, Dishwasher, Elevator, In Unit Washer & Dryer, Air Conditioning"
The Rosie,"1461 S Blue Island Ave, Chicago IL 60608",41.86191,-87.65709,"$1,645 - $2,900",Studio - 2 bd,1 - 2 ba,372 - 999 sq ft,"Pool, Fitness Center, Elevator, Bike Storage"
The Ridge,"5600 N Ridge Ave, Chicago IL 60660",41.98381,-87.66074,Call for Rent,Studio - 2 bd,1 - 2 ba,265 - 1060 sq ft,"Pool, Laundry Facilities, Clubhouse, Controlled Access, In Unit Washer & Dryer, Air Conditioning, Dishwasher, High Speed Internet Access"
Reside 707,"707 W Sheridan Rd, Chicago IL 60613",41.95244,-87.64845,"$1,180 - $4,341",Studio - 2 bd,1 - 2 ba,382 - 1135 sq ft,"Pool, Fitness Center, Laundry Facilities, Concierge, Air Conditioning, Dishwasher, High Speed Internet Access, Hardwood Floors"
Wolcott Court - 1828 W Lawrence Ave,"5017 N Wolcott Ave, Chicago IL 60640",41.97311,-87.67589,"$1,530 - $2,044",2 bd,1 ba,675 - 826 sq ft,"Air Conditioning, Hardwood Floors, Granite Countertops, Stainless Steel Appliances"
The June,"1137 W Foster Ave, Chicago IL 60640",41.97615,-87.65933,"$1,386",1 bd,1 ba,440 sq ft,"Elevator, Doorman, Bike Storage, Lounge"
The Clark,"1201 N Clark St, Chicago IL 60610",41.90416,-87.63104,"$1,710 - $3,780",Studio - 2 bd,1 - 2 ba,384 - 995 sq ft,"Fitness Center, Furnished Units Available, Elevator, Doorman, Concierge, Clubhouse, Roof Terrace, Controlled Access, In Unit Washer & Dryer, Air Conditioning, Dishwasher, High Speed Internet Access, Hardwood Floors, Walk-In Closets, Island Kitchen, Granite Countertops"
Wyndham Apartments,"5240 N Sheridan Rd, Chicago IL 60640",41.97748,-87.65565,"$1,268 - $2,978",Studio - 2 bd,1 ba,400 - 1000 sq ft,"Fitness Center, Laundry Facilities, Elevator, Business Center, Hardwood Floors, Microwave, Ceiling Fans, Range"
Columbus Plaza,"233 E Wacker Dr, Chicago IL 60601",41.88767,-87.62115,"$1,609 - $3,923",Studio - 2 bd,1 - 2 ba,563 - 1352 sq ft,"Fitness Center, Laundry Facilities, Controlled Access, Business Center, High Speed Internet Access, Walk-In Closets, Fireplace, Carpet"
The Van der Rohe,"2933 N Sheridan Rd, Chicago IL 60657",41.93521,-87.63912,"$1,775 - $2,560",1 - 3 bd,1.0 - 2.0 ba,690 - 1380 sq ft,"High Speed Internet Access, Parking Available, Utilities Included, Fitness Center, Walk-In Closets, Granite Countertops, Doorman, Hardwood Floors, Refrigerator, Pet Friendly, Microwave, Dishwasher, Air Conditioning, Elevator, Laundry Facilities"
Reside on Surf,"425 W Surf St, Chicago IL 60657",41.93394,-87.64035,"$1,419 - $4,239",Studio - 1 bd,1 ba,405 - 1023 sq ft,"Fitness Center, Laundry Facilities, Elevator, Concierge, In Unit Washer & Dryer, Air Conditioning, Dishwasher, High Speed Internet Access"
Sheridan Plaza - 4607 N Sheridan Rd,"4609 N Sheridan Rd, Chicago IL 60640",41.96588,-87.65495,"$1,571 - $2,739",1 - 2 bd,1 ba,634 - 962 sq ft,"Fitness Center, Laundry Facilities, Elevator, Doorman, Air Conditioning, Dishwasher, High Speed Internet Access, Hardwood Floors, Walk-In Closets, Granite Countertops, Microwave, Refrigerator"
Buena Shores,"833 W Buena Ave, Chicago IL 60613",41.9582,-87.65118,"$1,310 - $1,900",1 - 3 bd,1.0,525 - 700 sq ft,"High Speed Internet Access, Parking Available, Fitness Center, Grill, Hardwood Floors, Pet Friendly, Dishwasher, Air Conditioning, Elevator, Laundry Facilities"
Alta Roosevelt,"801 S Financial Pl, Chicago IL 60605",41.8715,-87.63257,"$1,630 - $12,385",Studio - 3 bd,1 - 2 ba,466 - 1476 sq ft,"Pool, Fitness Center, Elevator, Doorman, Concierge, Controlled Access, Recycling, Business Center, In Unit Washer & Dryer, Air Conditioning, Dishwasher, High Speed Internet Access, Hardwood Floors, Walk-In Closets, Microwave, Refrigerator"
Chicago Residence,"1739 E 78th St, Chicago IL 60649",41.7533,-87.58196,"$1,100",2 bd,1 ba,900 sq ft,
1344 N. Dearborn St.,"1344 N Dearborn Pky, Chicago IL 60610",41.9073,-87.63037,"$1,592 - $3,647",Studio - 2 bd,1 - 2 ba,400 - 1550 sq ft,"Air Conditioning, Dishwasher, Hardwood Floors, Microwave"
3260 &amp;amp; 3270 N Lake Shore Drive,"3260 N Lake Shore Dr, Chicago IL 60657",41.94201,-87.64008,"$1,360 - $4,995",1 - 3 bd,1 - 3 ba,470 - 2315 sq ft,"Laundry Facilities, Elevator, Package Service, Car Wash Area, In Unit Washer & Dryer, Dishwasher, High Speed Internet Access, Hardwood Floors"
6000 N Winthrop,"6000-6008 N Winthrop Ave, Chicago IL 60660",41.99109,-87.65861,"$1,250 - $1,450",1 bd,1 ba,,"Dishwasher, High Speed Internet Access, Hardwood Floors, Walk-In Closets"
Oglesby Towers Apartments,"6700 S Oglesby Ave, Chicago IL 60649",41.77311,-87.56891,"$1,159 - $5,500",Studio - 3 bd,1 - 3.5 ba,400 - 2300 sq ft,"Fitness Center, Elevator, Doorman, Clubhouse, Air Conditioning, Dishwasher, High Speed Internet Access, Hardwood Floors"
The Aberdeen West Loop,"4-22 N Aberdeen St, Chicago IL 60607",41.88232,-87.65466,"$2,295 - $4,355",1 - 3 bd,1 - 2 ba,636 - 1331 sq ft,"Controlled Access, Recycling, Gated, Planned Social Activities, In Unit Washer & Dryer, Air Conditioning, Dishwasher, High Speed Internet Access, Hardwood Floors, Walk-In Closets, Island Kitchen, Granite Countertops"
Luxe on Chicago,"1838 W Chicago Ave, Chicago IL 60622",41.8962,-87.67374,"$1,495 - $3,540",Studio - 3 bd,1 - 2 ba,561 - 1419 sq ft,"Fitness Center, Elevator, Roof Terrace, Recycling, In Unit Washer & Dryer, Air Conditioning, Dishwasher, Hardwood Floors"
440 N. Wabash Ave.,"440 N Wabash Ave, Chicago IL 60611",41.89033,-87.62704,"$2,650",2 bd,2 ba,1324 sq ft,"Pool, Fitness Center, Laundry Facilities, Elevator, Doorman, Concierge, Clubhouse, Controlled Access, In Unit Washer & Dryer, Air Conditioning, Dishwasher, High Speed Internet Access"
Ravenswood Vista Apartments,"4440 N Wolcott Ave, Chicago IL 60640",41.96272,-87.67641,$895,Studio bd,1 ba,,"Dishwasher, High Speed Internet Access, Hardwood Floors, Microwave"
